[{"code":"AAE","name":"Annaba, Algieria","latitude":36.822,"longitude":7.809},{"code":"AAH","name":"Akwizgran , Niemcy","latitude":50.823,"longitude":6.187},{"code":"AAL","name":"Aalborg, Dania","latitude":57.093,"longitude":9.849},{"code":"AAO","name":"Anaco, Wenezuela","latitude":9.429,"longitude":-64.471},{"code":"AAR","name":"Aarhus, Dania","latitude":56.304,"longitude":10.619},{"code":"AAY","name":"Al Ghajda, Jemen","latitude":0,"longitude":0},{"code":"ABA","name":"Abakan, Rosja","latitude":53.74,"longitude":91.385},{"code":"ABD","name":"Abadan, Iran","latitude":30.365,"longitude":48.233},{"code":"ABF","name":"Abaiang, Kiribati","latitude":0,"longitude":0},{"code":"ABI","name":"Abilene, Teksas, USA","latitude":32.411,"longitude":-99.682},{"code":"ABJ","name":"Port Bouet, Abid\u017can, Wybrze\u017ce Ko\u015bci S\u0142oniowej","latitude":5.26,"longitude":-3.926},{"code":"ABK","name":"Kabri Dar, Etiopia","latitude":0,"longitude":0},{"code":"ABM","name":"Bamaga, Australia","latitude":-10.951,"longitude":142.459},{"code":"ABQ","name":"Albuquerque, Nowy Meksyk, USA","latitude":35.04,"longitude":-106.609},{"code":"ABS","name":"Abu Simbel, Egipt","latitude":22.376,"longitude":31.612},{"code":"ABT","name":"Al","latitude":20.296,"longitude":41.634},{"code":"ABU","name":"Atambua, Indonezja","latitude":0,"longitude":0},{"code":"ABV","name":"Abud\u017ca, Nigeria","latitude":9.007,"longitude":7.263},{"code":"ABX","name":"Albury, Australia","latitude":-36.068,"longitude":146.958},{"code":"ABY","name":"Albany, Georgia, USA","latitude":0,"longitude":0},{"code":"ABZ","name":"Aberdeen, Wielka Brytania","latitude":57.204,"longitude":-2.2},{"code":"ACA","name":"Alvarez, Acapulco, Meksyk","latitude":16.757,"longitude":-99.753},{"code":"ACC","name":"Kotoka, Akra, Ghana","latitude":5.603,"longitude":-0.168},{"code":"ACE","name":"Arrecife, Hiszpania","latitude":28.945,"longitude":-13.605},{"code":"ACH","name":"Altenrhein, Szwajcaria","latitude":47.485,"longitude":9.561},{"code":"ACI","name":"Alderney, Wyspy Normandzkie, Wielka Brytania","latitude":0,"longitude":0},{"code":"ACK","name":"Nantucket MA, USA","latitude":41.253,"longitude":-70.06},{"code":"ACT","name":"Waco TX, USA","latitude":31.611,"longitude":-97.23},{"code":"ACY","name":"Atlantic City, New Jersey, USA","latitude":39.458,"longitude":-74.577},{"code":"ADA","name":"Adana, Turcja","latitude":37.002,"longitude":35.426},{"code":"ADB","name":"Adnan Menderes, Izmir, Turcja","latitude":38.292,"longitude":27.157},{"code":"ADD","name":"Bole, Addis Abeba, Etiopia","latitude":8.977,"longitude":38.8},{"code":"ADE","name":"Aden, Jemen","latitude":0,"longitude":0},{"code":"ADH","name":"A\u0142dan, Rosja","latitude":34.804,"longitude":-96.671},{"code":"ADI","name":"Arandis, Namibia","latitude":0,"longitude":0},{"code":"ADJ","name":"Marka, Amman, Jordania","latitude":31.972,"longitude":35.991},{"code":"ADL","name":"West Beach k. Adelaide, Australia","latitude":-34.945,"longitude":138.531},{"code":"ADQ","name":"Kodiak, Alaska, Stany Zjednoczone","latitude":57.75,"longitude":-152.494},{"code":"ADX","name":"Leuchars, Szkocja, Wielka Brytania","latitude":56.373,"longitude":-2.868},{"code":"ADZ","name":"San Andr\u00e9s, Kolumbia","latitude":12.583,"longitude":-81.711},{"code":"AEA","name":"Abemama, Kiribati","latitude":0,"longitude":0},{"code":"AEH","name":"Ab\u00e9ch\u00e9, Czad","latitude":13.847,"longitude":20.844},{"code":"AEP","name":"Jorge Newbery, Buenos Aires, Argentyna","latitude":-34.559,"longitude":-58.416},{"code":"AER","name":"Adler i Soczi, Rosja","latitude":43.446,"longitude":39.947},{"code":"AES","name":"Alesund, Norwegia","latitude":62.56,"longitude":6.11},{"code":"AEX","name":"Alexandria, Luizjana, USA","latitude":31.327,"longitude":-92.548},{"code":"AEY","name":"Akureyri, Islandia","latitude":65.66,"longitude":-18.072},{"code":"AFA","name":"San Rafael, Argentyna","latitude":-34.588,"longitude":-68.403},{"code":"AFL","name":"Alta Floresta, Brazylia","latitude":-9.866,"longitude":-56.106},{"code":"AFY","name":"Afyon, Turcja","latitude":38.726,"longitude":30.601},{"code":"AGA","name":"Al Massira, Agadir, Maroko","latitude":30.381,"longitude":-9.546},{"code":"AGB","name":"Augsburg, Niemcy","latitude":48.425,"longitude":10.932},{"code":"AGE","name":"Wangerooge, Niemcy","latitude":0,"longitude":0},{"code":"AGF","name":"Agen, Francja","latitude":44.175,"longitude":0.591},{"code":"AGH","name":"\u00c4ngelholm, Szwecja","latitude":0,"longitude":0},{"code":"AGJ","name":"Aguni, Japonia","latitude":0,"longitude":0},{"code":"AGP","name":"Malaga, Hiszpania","latitude":36.674,"longitude":-4.499},{"code":"AGR","name":"Agra, Indie","latitude":27.156,"longitude":77.961},{"code":"AGS","name":"Augusta, Georgia, USA","latitude":33.37,"longitude":-81.964},{"code":"AGU","name":"Aguascalientes, Meksyk","latitude":21.705,"longitude":-102.318},{"code":"AGV","name":"Oswaldo Guevara Mujica, Acar\u00edgua, Wenezuela","latitude":9.553,"longitude":-69.238},{"code":"AGZ","name":"Aggneys, RPA","latitude":-29.282,"longitude":18.814},{"code":"AHB","name":"Abha, Arabia Saudyjska","latitude":18.24,"longitude":42.656},{"code":"AHO","name":"Alghero, W\u0142ochy","latitude":40.632,"longitude":8.291},{"code":"AHU","name":"Al","latitude":35.177,"longitude":-3.839},{"code":"AIS","name":"Arorae, Kiribati","latitude":0,"longitude":0},{"code":"AIT","name":"Aitutaki, Wyspy Cooka","latitude":-18.825,"longitude":-159.774},{"code":"AIU","name":"Enua, Atiu, Wyspy Cooka","latitude":0,"longitude":0},{"code":"AJA","name":"Ajaccio, Francja","latitude":41.924,"longitude":8.803},{"code":"AJJ","name":"Akd\u017cawad\u017cat, Mauretania","latitude":0,"longitude":0},{"code":"AJL","name":"Aizawl, Indie","latitude":23.746,"longitude":92.803},{"code":"AJN","name":"Anjouan, Komory","latitude":-12.132,"longitude":44.43},{"code":"AJR","name":"Arvidsjaur, Szwecja","latitude":65.59,"longitude":19.282},{"code":"AJU","name":"Aracaju, Brazylia","latitude":-10.984,"longitude":-37.07},{"code":"AJY","name":"Agadez, Niger","latitude":16.965,"longitude":7.997},{"code":"AKF","name":"Kufra, Libia","latitude":24.179,"longitude":23.314},{"code":"AKJ","name":"Asahikawa, Japonia","latitude":43.671,"longitude":142.447},{"code":"AKL","name":"Mangere k. Auckland, Nowa Zelandia","latitude":-37.008,"longitude":174.792},{"code":"AKN","name":"King Salmon, Alaska, Stany Zjednoczone","latitude":58.677,"longitude":-156.649},{"code":"AKR","name":"Akure, Nigeria","latitude":41.038,"longitude":-81.467},{"code":"AKX","name":"Aktobe, Kazachstan","latitude":50.245,"longitude":57.203},{"code":"AKY","name":"Sittwe, Mjanma","latitude":20.133,"longitude":92.872},{"code":"ALA","name":"A\u0142maty, Kazachstan","latitude":43.352,"longitude":77.04},{"code":"ALB","name":"Albany, Nowy Jork, USA","latitude":42.748,"longitude":-73.803},{"code":"ALC","name":"Alicante, Hiszpania","latitude":38.282,"longitude":-0.558},{"code":"ALF","name":"Alta, Norwegia","latitude":69.977,"longitude":23.366},{"code":"ALG","name":"Algier, Algieria","latitude":36.691,"longitude":3.215},{"code":"ALJ","name":"Alexander Bay, RPA","latitude":-28.575,"longitude":16.533},{"code":"ALL","name":"Albenga, W\u0142ochy","latitude":44.051,"longitude":8.127},{"code":"ALP","name":"Aleppo, Syria","latitude":36.181,"longitude":37.224},{"code":"ALU","name":"Alula, Somalia","latitude":0,"longitude":0},{"code":"ALY","name":"El Nouza, Aleksandria, Egipt","latitude":31.184,"longitude":29.949},{"code":"AMA","name":"Rick Husband, Amarillo, Teksas, USA","latitude":35.219,"longitude":-101.706},{"code":"AMD","name":"Ahmadabad, Indie","latitude":23.075,"longitude":72.632},{"code":"AMH","name":"Arba Minch, Etiopia","latitude":0,"longitude":0},{"code":"AMI","name":"Selaparang, Mataram, Indonezja","latitude":-8.561,"longitude":116.094},{"code":"AMM","name":"Queen Alia, Amman, Jordania","latitude":31.722,"longitude":35.993},{"code":"AMO","name":"Mao, Czad","latitude":0,"longitude":0},{"code":"AMQ","name":"Ambon, Indonezja","latitude":-3.709,"longitude":128.09},{"code":"AMS","name":"Schiphol, Haarlemmermeer k. Amsterdamu, Holandia","latitude":52.309,"longitude":4.764},{"code":"ANB","name":"Anniston, Alabama, USA","latitude":33.588,"longitude":-85.858},{"code":"ANC","name":"Ted Stevens, Anchorage, Alaska, USA","latitude":61.174,"longitude":-149.996},{"code":"ANF","name":"Cerro Moreno, Antofagasta, Chile","latitude":-23.444,"longitude":-70.445},{"code":"ANG","name":"Angouleme, Francja","latitude":45.729,"longitude":0.221},{"code":"ANK","name":"Ankara, Turcja","latitude":39.95,"longitude":32.689},{"code":"ANO","name":"Angoche, Mozambik","latitude":0,"longitude":0},{"code":"ANR","name":"Antwerpia, Belgia","latitude":51.19,"longitude":4.463},{"code":"ANS","name":"Andahuaylas, Peru","latitude":-13.706,"longitude":-73.35},{"code":"ANU","name":"V. C. Bird, Antigua, Antigua i Barbuda","latitude":17.137,"longitude":-61.792},{"code":"ANX","name":"Andenes, Norwegia","latitude":69.293,"longitude":16.144},{"code":"AOC","name":"Nobitz, Altenburg, Niemcy","latitude":50.982,"longitude":12.506},{"code":"AOJ","name":"Aomori, Japonia","latitude":40.734,"longitude":140.691},{"code":"AOK","name":"Karpathos, Grecja","latitude":35.421,"longitude":27.146},{"code":"AOO","name":"Altoona, Pensylwania, USA","latitude":40.296,"longitude":-78.32},{"code":"AOR","name":"Su\u0142tan Abdul Halim, Alor Setar, Malezja","latitude":6.194,"longitude":100.403},{"code":"APB","name":"Apolo, Boliwia","latitude":-14.739,"longitude":-68.411},{"code":"APK","name":"Apataki, Polinezja Francuska","latitude":0,"longitude":0},{"code":"APL","name":"Nampula, Mozambik","latitude":-15.106,"longitude":39.282},{"code":"APW","name":"Faleolo, Apia, Samoa","latitude":-13.83,"longitude":-172.008},{"code":"AQI","name":"Al","latitude":28.335,"longitude":46.125},{"code":"AQJ","name":"Akaba, Jordania","latitude":29.611,"longitude":35.018},{"code":"AQP","name":"Arequipa, Peru","latitude":-16.341,"longitude":-71.583},{"code":"ARI","name":"Chacalutta, Arica, Chile","latitude":-18.348,"longitude":-70.339},{"code":"ARK","name":"Arusza, Tanzania","latitude":-3.368,"longitude":36.633},{"code":"ARN","name":"Arlanda, Sztokholm, Szwecja","latitude":59.652,"longitude":17.919},{"code":"ARU","name":"Ara\u00e7atuba, Brazylia","latitude":-21.141,"longitude":-50.425},{"code":"ARZ","name":"N'zeto, Angola","latitude":0,"longitude":0},{"code":"ASA","name":"Assab, Erytrea","latitude":0,"longitude":0},{"code":"ASB","name":"Aszchabad, Turkmenistan","latitude":37.992,"longitude":58.363},{"code":"ASD","name":"Andros Town, Bahamy","latitude":24.698,"longitude":-77.796},{"code":"ASF","name":"Narimanowo, Astracha\u0144, Rosja","latitude":46.283,"longitude":48.006},{"code":"ASJ","name":"Amami, Japonia","latitude":28.431,"longitude":129.712},{"code":"ASK","name":"Jamusukro, Wybrze\u017ce Ko\u015bci S\u0142oniowej","latitude":6.903,"longitude":-5.366},{"code":"ASM","name":"Asmara, Erytrea","latitude":0,"longitude":0},{"code":"ASO","name":"Asosa, Etiopia","latitude":0,"longitude":0},{"code":"ASP","name":"Alice Springs, Australia","latitude":-23.807,"longitude":133.902},{"code":"ASR","name":"Erkilet, Region Kayseri, Turcja","latitude":38.77,"longitude":35.495},{"code":"ASU","name":"Asunci\u00f3n, Paragwaj","latitude":-25.24,"longitude":-57.519},{"code":"ASV","name":"Amboseli, Kenia","latitude":0,"longitude":0},{"code":"ASW","name":"Asuan, Egipt","latitude":23.964,"longitude":32.82},{"code":"ATA","name":"Anta, Peru","latitude":-9.347,"longitude":-77.598},{"code":"ATB","name":"Atbara, Sudan","latitude":0,"longitude":0},{"code":"ATI","name":"Artigas, Urugwaj","latitude":-30.401,"longitude":-56.508},{"code":"ATJ","name":"Antsirabe, Madagaskar","latitude":0,"longitude":0},{"code":"ATL","name":"Hartsfield","latitude":33.64,"longitude":-84.427},{"code":"ATM","name":"Altamira, Brazylia","latitude":-3.254,"longitude":-52.254},{"code":"ATQ","name":"Amritsar, Indie","latitude":31.707,"longitude":74.799},{"code":"ATR","name":"Atar, Mauretania","latitude":20.507,"longitude":-13.043},{"code":"ATV","name":"Ati, Czad","latitude":0,"longitude":0},{"code":"AUA","name":"Queen Beatrix k. Oranjestad, Aruba","latitude":12.501,"longitude":-70.015},{"code":"AUC","name":"Arauca, Kolumbia","latitude":7.069,"longitude":-70.737},{"code":"AUF","name":"Auxerre, Francja","latitude":47.85,"longitude":3.497},{"code":"AUG","name":"Augusta, Maine, USA","latitude":44.321,"longitude":-69.797},{"code":"AUH","name":"Abu Zabi, Zjednoczone Emiraty Arabskie","latitude":24.433,"longitude":54.651},{"code":"AUR","name":"Aurillac, Francja","latitude":44.891,"longitude":2.422},{"code":"AUS","name":"Austin, Teksas, USA","latitude":30.194,"longitude":-97.67},{"code":"AVB","name":"Aviano, W\u0142ochy","latitude":46.032,"longitude":12.596},{"code":"AVI","name":"Ciego de \u00c1vila, Kuba","latitude":22.027,"longitude":-78.789},{"code":"AVN","name":"Awinion, Francja","latitude":43.907,"longitude":4.902},{"code":"AVV","name":"Avalon, Melbourne, Australia","latitude":-38.039,"longitude":144.469},{"code":"AWA","name":"Auasa, Etiopia","latitude":0,"longitude":0},{"code":"AWD","name":"Aniwa, Vanuatu","latitude":0,"longitude":0},{"code":"AWZ","name":"Ahwaz, Iran","latitude":31.337,"longitude":48.762},{"code":"AXA","name":"Clayton J. Lloyd, The Valley, Anguilla","latitude":18.205,"longitude":-63.055},{"code":"AXD","name":"Aleksandropolis, Grecja","latitude":40.856,"longitude":25.956},{"code":"AXM","name":"El Eden, La Tebaidak\/Armenia, Kolumbia","latitude":4.454,"longitude":-75.765},{"code":"AXP","name":"Spring Point, Bahamy","latitude":22.442,"longitude":-73.971},{"code":"AXR","name":"Arutua, Polinezja Francuska","latitude":-15.248,"longitude":-146.616},{"code":"AXT","name":"Akita, Japonia","latitude":39.616,"longitude":140.219},{"code":"AXU","name":"Aksum, Etiopia","latitude":0,"longitude":0},{"code":"AYP","name":"Ayacucho, Peru","latitude":-13.155,"longitude":-74.204},{"code":"AYT","name":"Antalya, Turcja","latitude":36.901,"longitude":30.792},{"code":"AZD","name":"Jazd, Iran","latitude":31.905,"longitude":54.276},{"code":"AZI","name":"Batin, Abu Zabi, Zjednoczone Emiraty Arabskie","latitude":24.428,"longitude":54.458},{"code":"AZR","name":"Adrar, Algieria","latitude":27.837,"longitude":-0.186},{"code":"AZZ","name":"Ambriz, Angola","latitude":0,"longitude":0},{"code":"BAH","name":"Manama, Bahrajn","latitude":26.271,"longitude":50.634},{"code":"BAK","name":"Baku, Azerbejd\u017can","latitude":40.468,"longitude":50.047},{"code":"BAL","name":"Batman, Turcja","latitude":37.929,"longitude":41.116},{"code":"BAQ","name":"Ernesto Cortissoz, Barranquilla, Kolumbia","latitude":10.889,"longitude":-74.781},{"code":"BAS","name":"Balalae, Wyspy Salomona","latitude":0,"longitude":0},{"code":"BAV","name":"Baotou, Chi\u0144ska Republika Ludowa","latitude":0,"longitude":0},{"code":"BAX","name":"Barnau\u0142, Rosja","latitude":53.364,"longitude":83.542},{"code":"BAY","name":"Baia Mare, Rumunia","latitude":47.658,"longitude":23.47},{"code":"BBA","name":"Balmaceda, Chile","latitude":-45.916,"longitude":-71.689},{"code":"BBG","name":"Butaritari, Kiribati","latitude":0,"longitude":0},{"code":"BBI","name":"Bhubaneswar, Indie","latitude":20.244,"longitude":85.818},{"code":"BBJ","name":"Bitburg, Niemcy","latitude":51.193,"longitude":14.52},{"code":"BBO","name":"Berbera, Somalia","latitude":10.389,"longitude":44.941},{"code":"BBS","name":"Blackbushe, Wielka Brytania","latitude":51.324,"longitude":-0.848},{"code":"BBT","name":"Berberati, Republika \u015arodkowoafryka\u0144ska","latitude":4.221,"longitude":15.786},{"code":"BBU","name":"B\u0103neasa, Bukareszt, Rumunia","latitude":44.503,"longitude":26.102},{"code":"BBV","name":"Grand","latitude":0,"longitude":0},{"code":"BBY","name":"Bambari, Republika \u015arodkowoafryka\u0144ska","latitude":5.847,"longitude":20.649},{"code":"BCA","name":"Gustavo Rizo, Baracoa, Kuba","latitude":20.366,"longitude":-74.506},{"code":"BCD","name":"Silay, Bacolod, Filipiny","latitude":10.643,"longitude":122.929},{"code":"BCM","name":"Bac\u0103u, Rumunia","latitude":46.522,"longitude":26.91},{"code":"BCN","name":"El Prat de Llobregat k. Barcelony, Hiszpania","latitude":41.297,"longitude":2.078},{"code":"BCO","name":"Baco, Etiopia","latitude":0,"longitude":0},{"code":"BDH","name":"Bandar Lengeh, Iran","latitude":26.532,"longitude":54.822},{"code":"BDI","name":"Bird Island, Seszele","latitude":0,"longitude":0},{"code":"BDJ","name":"Banjarmasin, Indonezja","latitude":-3.442,"longitude":114.761},{"code":"BDK","name":"Soko, Bondoukou, Wybrze\u017ce Ko\u015bci S\u0142oniowej","latitude":0,"longitude":0},{"code":"BDL","name":"Windsor Locks k. Hartford, Connecticut, USA","latitude":41.939,"longitude":-72.683},{"code":"BDO","name":"Bandung, Indonezja","latitude":-6.901,"longitude":107.576},{"code":"BDQ","name":"Baronda, Indie","latitude":22.336,"longitude":73.226},{"code":"BDT","name":"Gbadolite, Demokratyczna Republika Konga","latitude":4.253,"longitude":20.975},{"code":"BDU","name":"Bardufoss, Norwegia","latitude":69.056,"longitude":18.54},{"code":"BEB","name":"Benbecula, Szkocja, Wielka Brytania","latitude":57.481,"longitude":-7.363},{"code":"BED","name":"Bedford, Massachusetts, USA","latitude":42.47,"longitude":-71.289},{"code":"BEG","name":"Belgrad, Serbia","latitude":44.818,"longitude":20.309},{"code":"BEI","name":"Beica, Etiopia","latitude":0,"longitude":0},{"code":"BEL","name":"Val de Caes, Bel\u00e9m, Brazylia","latitude":-1.379,"longitude":-48.476},{"code":"BEM","name":"Bossemb\u00e9l\u00e9, Republika \u015arodkowoafryka\u0144ska","latitude":0,"longitude":0},{"code":"BEN","name":"Benina, Bengazi, Libia","latitude":32.097,"longitude":20.269},{"code":"BEP","name":"Ballari, Indie","latitude":0,"longitude":0},{"code":"BEQ","name":"Honington, Wielka Brytania","latitude":52.343,"longitude":0.773},{"code":"BES","name":"Brest, Francja","latitude":48.448,"longitude":-4.418},{"code":"BET","name":"Bethel, Alaska, USA","latitude":60.78,"longitude":-161.838},{"code":"BEV","name":"Beer Szewa, Izrael","latitude":31.287,"longitude":34.723},{"code":"BEW","name":"Beira, Mozambik","latitude":-19.796,"longitude":34.907},{"code":"BEY","name":"Bejrut, Liban","latitude":33.813,"longitude":35.489},{"code":"BEZ","name":"Beru, Kiribati","latitude":0,"longitude":0},{"code":"BFI","name":"Seattle, Waszyngton, USA","latitude":47.53,"longitude":-122.302},{"code":"BFL","name":"Bakersfield, Kalifornia, USA","latitude":35.433,"longitude":-119.057},{"code":"BFN","name":"Bloemfontein, Po\u0142udniowa Afryka","latitude":-29.092,"longitude":26.302},{"code":"BFO","name":"Chiredzi, Zimbabwe","latitude":-21.008,"longitude":31.578},{"code":"BFS","name":"Belfast, Wielka Brytania","latitude":54.657,"longitude":-6.216},{"code":"BGA","name":"Palonegro, Lebrija, Kolumbia","latitude":7.126,"longitude":-73.185},{"code":"BGB","name":"Booue, Gabon","latitude":0,"longitude":0},{"code":"BGC","name":"Bragan\u00e7a, Portugalia","latitude":41.868,"longitude":-6.712},{"code":"BGF","name":"Bangi, Republika \u015arodkowoafryka\u0144ska","latitude":4.398,"longitude":18.519},{"code":"BGH","name":"Boghe, Mauretania","latitude":0,"longitude":0},{"code":"BGI","name":"Grantley Adams, Bridgetown, Barbados","latitude":13.074,"longitude":-59.492},{"code":"BGO","name":"Bergen, Norwegia","latitude":60.293,"longitude":5.218},{"code":"BGR","name":"Bangor, Maine, USA","latitude":44.807,"longitude":-68.828},{"code":"BGU","name":"Bangassou, Republika \u015arodkowoafryka\u0144ska","latitude":4.784,"longitude":22.781},{"code":"BGY","name":"Orio al Serio, Bergamo k. Mediolanu, W\u0142ochy","latitude":45.674,"longitude":9.704},{"code":"BHD","name":"Belfast, Wielka Brytania","latitude":54.618,"longitude":-5.873},{"code":"BHE","name":"Blenheim, Nowa Zelandia","latitude":-41.518,"longitude":173.87},{"code":"BHH","name":"Bisza, Arabia Saudyjska","latitude":19.984,"longitude":42.623},{"code":"BHI","name":"Bah\u00eda Blanca, Argentyna","latitude":-38.725,"longitude":-62.169},{"code":"BHK","name":"Buchara, Uzbekistan","latitude":39.775,"longitude":64.48},{"code":"BHM","name":"Birmingham, Alabama, USA","latitude":33.563,"longitude":-86.753},{"code":"BHN","name":"Beihan, Jemen","latitude":0,"longitude":0},{"code":"BHO","name":"Bhopal, Indie","latitude":23.285,"longitude":77.337},{"code":"BHX","name":"Birmingham, Wielka Brytania","latitude":52.454,"longitude":-1.748},{"code":"BHY","name":"Beihai, Chi\u0144ska Republika Ludowa","latitude":0,"longitude":0},{"code":"BIA","name":"Bastia, Francja","latitude":42.554,"longitude":9.483},{"code":"BIK","name":"Biak, Indonezja","latitude":-1.19,"longitude":136.108},{"code":"BIM","name":"Po\u0142udniowe Bimini, Bahamy","latitude":0,"longitude":0},{"code":"BIO","name":"Bilbao, Hiszpania","latitude":43.301,"longitude":-2.911},{"code":"BIQ","name":"Biarritz, Francja","latitude":43.468,"longitude":-1.523},{"code":"BIR","name":"Biratnagar, Nepal","latitude":26.483,"longitude":87.264},{"code":"BIV","name":"Bria, Republika \u015arodkowoafryka\u0144ska","latitude":6.528,"longitude":21.989},{"code":"BJF","name":"Batsfjord, Norwegia","latitude":70.6,"longitude":29.692},{"code":"BJL","name":"Band\u017cul, Gambia","latitude":13.338,"longitude":-16.652},{"code":"BJM","name":"Bu\u017cumbura, Burundi","latitude":-3.324,"longitude":29.318},{"code":"BJO","name":"Bermejo, Boliwia","latitude":-22.769,"longitude":-64.315},{"code":"BJR","name":"Bahyr Dar, Etiopia","latitude":11.608,"longitude":37.321},{"code":"BJX","name":"Del Baj\u00edo, Le\u00f3n, Meksyk","latitude":20.993,"longitude":-101.481},{"code":"BJZ","name":"Badajoz, Hiszpania","latitude":38.891,"longitude":-6.821},{"code":"BKI","name":"Kota Kinabalu, Malezja","latitude":5.937,"longitude":116.051},{"code":"BKJ","name":"Boke, Gwinea","latitude":0,"longitude":0},{"code":"BKK","name":"Suvarnabhumi, Bangkok, Tajlandia","latitude":13.912,"longitude":100.607},{"code":"BKM","name":"Ba'kelalan, Malezja","latitude":0,"longitude":0},{"code":"BKO","name":"Senou, Bamako, Mali","latitude":12.533,"longitude":-7.95},{"code":"BKS","name":"Bengkulu, Indonezja","latitude":-3.864,"longitude":102.341},{"code":"BKY","name":"Kavumu, Bukavu, Demokratyczna Republika Konga","latitude":-2.309,"longitude":28.809},{"code":"BKZ","name":"Bukoba, Tanzania","latitude":0,"longitude":0},{"code":"BLA","name":"General Jose Antonio Anzoategui, Barcelona, Wenezuela","latitude":10.107,"longitude":-64.689},{"code":"BLC","name":"Bali, Kamerun","latitude":0,"longitude":0},{"code":"BLE","name":"Borl\u00e4nge, Szwecja","latitude":60.422,"longitude":15.515},{"code":"BLI","name":"Bellingham, Waszyngton, USA","latitude":48.792,"longitude":-122.537},{"code":"BLK","name":"Blackpool, Wielka Brytania","latitude":53.772,"longitude":-3.029},{"code":"BLL","name":"Billund, Dania","latitude":55.74,"longitude":9.152},{"code":"BLQ","name":"Gugliemo Marconi, Bolonia, W\u0142ochy","latitude":44.534,"longitude":11.29},{"code":"BLR","name":"Devanahalli, Indie","latitude":12.95,"longitude":77.668},{"code":"BLZ","name":"Chileka, Blantyre, Malawi","latitude":-15.679,"longitude":34.974},{"code":"BMA","name":"Bromma, Sztokholm, Szwecja","latitude":59.354,"longitude":17.941},{"code":"BME","name":"Broome, Australia","latitude":0,"longitude":0},{"code":"BMK","name":"Borkum, Niemcy","latitude":53.595,"longitude":6.709},{"code":"BMM","name":"Bitam, Gabon","latitude":2.076,"longitude":11.493},{"code":"BMW","name":"Bord\u017c Bad\u017ci Mochtar, Algieria","latitude":0,"longitude":0},{"code":"BNA","name":"Nashville, Tennessee, USA","latitude":36.124,"longitude":-86.678},{"code":"BND","name":"Bandar","latitude":27.218,"longitude":56.378},{"code":"BNE","name":"Brisbane, Australia","latitude":-27.384,"longitude":153.118},{"code":"BNI","name":"Benin, Nigeria","latitude":6.317,"longitude":5.599},{"code":"BNN","name":"Bronnoysund, Norwegia","latitude":65.459,"longitude":12.214},{"code":"BNR","name":"Banfora, Burkina Faso","latitude":0,"longitude":0},{"code":"BNS","name":"Barinas, Wenezuela","latitude":8.619,"longitude":-70.221},{"code":"BOB","name":"Bora","latitude":-16.444,"longitude":-151.751},{"code":"BOC","name":"Wyspa Colon, Bocas del Toro, Panama","latitude":9.341,"longitude":-82.251},{"code":"BOD","name":"Bordeaux, Francja","latitude":44.828,"longitude":-0.716},{"code":"BOE","name":"Boundji, Kongo","latitude":0,"longitude":0},{"code":"BOG","name":"El Dorado, Bogot\u00e1, Kolumbia","latitude":4.701,"longitude":-74.147},{"code":"BOH","name":"Bournemouth Hurn, Wielka Brytania","latitude":50.78,"longitude":-1.843},{"code":"BOI","name":"Boise, Idaho, USA","latitude":43.564,"longitude":-116.223},{"code":"BOJ","name":"Burgas, Bu\u0142garia","latitude":42.569,"longitude":27.514},{"code":"BOM","name":"Bombaj, Indie","latitude":19.089,"longitude":72.868},{"code":"BON","name":"Flamingo, Kralendijk, Bonaire","latitude":12.131,"longitude":-68.268},{"code":"BOO","name":"Bodo, Norwegia","latitude":67.269,"longitude":14.363},{"code":"BOP","name":"Bouar, Republika \u015arodkowoafryka\u0144ska","latitude":5.958,"longitude":15.637},{"code":"BOR","name":"Belfort, Francja","latitude":0,"longitude":0},{"code":"BOS","name":"Lt. General Edward Lawrence Logan, Boston, Massachusetts, USA","latitude":42.364,"longitude":-71.005},{"code":"BOU","name":"Bourges, Francja","latitude":47.058,"longitude":2.37},{"code":"BOY","name":"Bobo","latitude":11.16,"longitude":-4.331},{"code":"BOZ","name":"Bozoum, Republika \u015arodkowoafryka\u0144ska","latitude":0,"longitude":0},{"code":"BPC","name":"Bamenda, Kamerun","latitude":6.039,"longitude":10.123},{"code":"BPN","name":"Balikpapan, Indonezja","latitude":-1.268,"longitude":116.894},{"code":"BPT","name":"Nederland k. Beaumont, Teksas i Port Arthur, Teksas, USA","latitude":29.951,"longitude":-94.021},{"code":"BPY","name":"Besalampy, Madagaskar","latitude":-16.742,"longitude":44.481},{"code":"BQH","name":"Biggin Hill, Londyn, Wielka Brytania","latitude":51.331,"longitude":0.033},{"code":"BQK","name":"Brunswick k. Glyncouster, Georgia, USA","latitude":0,"longitude":0},{"code":"BQN","name":"Rafael Hernandez, Aguadilla, Portoryko, USA","latitude":18.495,"longitude":-67.129},{"code":"BQS","name":"B\u0142agowieszcze\u0144sk, Rosja","latitude":50.422,"longitude":127.41},{"code":"BRC","name":"Bariloche, Argentyna","latitude":-41.151,"longitude":-71.157},{"code":"BRE","name":"Brema, Niemcy","latitude":53.047,"longitude":8.787},{"code":"BRI","name":"Bari, W\u0142ochy","latitude":41.138,"longitude":16.761},{"code":"BRM","name":"Jacinto Lara, Barquisimeto, Wenezuela","latitude":10.043,"longitude":-69.358},{"code":"BRN","name":"Belp, Berno, Szwajcaria","latitude":46.914,"longitude":7.497},{"code":"BRO","name":"Brownsville, Stany Zjednoczone","latitude":25.907,"longitude":-97.426},{"code":"BRQ","name":"Brno, Czechy","latitude":49.151,"longitude":16.694},{"code":"BRR","name":"Barra, Szkocja, Wielka Brytania","latitude":0,"longitude":0},{"code":"BRS","name":"Bristol, Wielka Brytania","latitude":51.383,"longitude":-2.719},{"code":"BRU","name":"Bruksela, Belgia","latitude":50.902,"longitude":4.499},{"code":"BRV","name":"Bremerhaven, Niemcy","latitude":53.503,"longitude":8.573},{"code":"BRW","name":"Barrow, Alaska, Stany Zjednoczone","latitude":71.285,"longitude":-156.766},{"code":"BRX","name":"Barahona, Dominikana","latitude":18.251,"longitude":-71.12},{"code":"BSB","name":"Bras\u00edlia, Brazylia","latitude":-15.862,"longitude":-47.913},{"code":"BSC","name":"Bah\u00eda Solano, Kolumbia","latitude":6.203,"longitude":-77.394},{"code":"BSG","name":"Bata, Gwinea R\u00f3wnikowa","latitude":1.905,"longitude":9.806},{"code":"BSK","name":"Biskira, Algieria","latitude":34.793,"longitude":5.738},{"code":"BSN","name":"Bossangoa, Republika \u015arodkowoafryka\u0144ska","latitude":0,"longitude":0},{"code":"BSR","name":"Basra, Irak","latitude":30.549,"longitude":47.662},{"code":"BST","name":"Laszkargah, Afganistan","latitude":0,"longitude":0},{"code":"BSU","name":"Basankusu, Demokratyczna Republika Konga","latitude":0,"longitude":0},{"code":"BTA","name":"Bertoua, Kamerun","latitude":0,"longitude":0},{"code":"BTB","name":"Betou, Kongo","latitude":0,"longitude":0},{"code":"BTH","name":"Batam, Indonezja","latitude":1.121,"longitude":104.119},{"code":"BTJ","name":"Banda Aceh, Indonezja","latitude":5.523,"longitude":95.42},{"code":"BTK","name":"Brack, Rosja","latitude":56.371,"longitude":101.699},{"code":"BTR","name":"Baton Rouge, Luizjana, USA","latitude":30.533,"longitude":-91.149},{"code":"BTS","name":"Bratys\u0142awa, S\u0142owacja","latitude":48.17,"longitude":17.212},{"code":"BTU","name":"Bintulu, Malezja","latitude":3.172,"longitude":113.044},{"code":"BTV","name":"Burlington, Vermont, USA","latitude":44.472,"longitude":-73.153},{"code":"BTZ","name":"Bursa, Turcja","latitude":40.232,"longitude":29.009},{"code":"BUD","name":"Ferihegy, Budapeszt, W\u0119gry","latitude":47.437,"longitude":19.256},{"code":"BUF","name":"Buffalo, Nowy Jork, USA","latitude":42.94,"longitude":-78.732},{"code":"BUG","name":"Benguela, Angola","latitude":-12.609,"longitude":13.404},{"code":"BUN","name":"Buenaventura, Kolumbia","latitude":3.819,"longitude":-76.99},{"code":"BUO","name":"Burao, Somalia","latitude":0,"longitude":0},{"code":"BUQ","name":"Bulawayo, Zimbabwe","latitude":-20.017,"longitude":28.618},{"code":"BUR","name":"Burbank, Kalifornia, USA","latitude":34.201,"longitude":-118.359},{"code":"BUW","name":"Bau","latitude":0,"longitude":0},{"code":"BUX","name":"Bunia, Demokratyczna Republika Konga","latitude":1.566,"longitude":30.221},{"code":"BUZ","name":"Buszehr, Iran","latitude":28.945,"longitude":50.834},{"code":"BVA","name":"Beauvais","latitude":49.454,"longitude":2.113},{"code":"BVB","name":"Boa Vista, Brazylia","latitude":2.846,"longitude":-60.69},{"code":"BVC","name":"Rabil Sal Rei, Republika Zielonego Przyl\u0105dka","latitude":16.137,"longitude":-22.889},{"code":"BVG","name":"Berlevag, Norwegia","latitude":0,"longitude":0},{"code":"BVH","name":"Vilhena, Brazylia","latitude":-12.694,"longitude":-60.098},{"code":"BWE","name":"Brunszwik\/Wolfsburg, Niemcy","latitude":52.319,"longitude":10.556},{"code":"BWI","name":"Baltimore, Maryland i Waszyngton, USA","latitude":39.175,"longitude":-76.668},{"code":"BWN","name":"Bandar Seri Begawan, Brunei","latitude":4.946,"longitude":114.928},{"code":"BXE","name":"Bakel, Senegal","latitude":14.847,"longitude":-12.468},{"code":"BXI","name":"Bouna, Wybrze\u017ce Ko\u015bci S\u0142oniowej","latitude":0,"longitude":0},{"code":"BXO","name":"Bissau, Gwinea Bissau","latitude":11.895,"longitude":-15.654},{"code":"BXU","name":"Butuan, Filipiny","latitude":0,"longitude":0},{"code":"BYC","name":"Yacuiba, Boliwia","latitude":0,"longitude":0},{"code":"BYK","name":"Bouak\u00e9, Wybrze\u017ce Ko\u015bci S\u0142oniowej","latitude":7.739,"longitude":-5.074},{"code":"BYM","name":"Bayamo, Kuba","latitude":20.396,"longitude":-76.621},{"code":"BYU","name":"Bayreuth, Niemcy","latitude":49.984,"longitude":11.638},{"code":"BZE","name":"Phillip S. W. Goldson, Ladyville k. Belize City, Belize","latitude":17.539,"longitude":-88.308},{"code":"BZI","name":"Balikesir, Turcja","latitude":39.619,"longitude":27.925},{"code":"BZO","name":"Bolzano, W\u0142ochy","latitude":46.461,"longitude":11.326},{"code":"BZR","name":"B\u00e9ziers, Francja","latitude":43.324,"longitude":3.356},{"code":"BZV","name":"Brazzaville, Kongo","latitude":-4.252,"longitude":15.253},{"code":"CAB","name":"Kabinda, Angola","latitude":-5.597,"longitude":12.188},{"code":"CAC","name":"Cascavel, Brazylia","latitude":-25,"longitude":-53.501},{"code":"CAE","name":"West Columbia k. Columbia, Karolina Po\u0142udniowa, USA","latitude":33.939,"longitude":-81.119},{"code":"CAG","name":"Elmas, Cagliari, W\u0142ochy","latitude":39.251,"longitude":9.054},{"code":"CAI","name":"Kair, Egipt","latitude":30.122,"longitude":31.406},{"code":"CAN","name":"port lotniczy Guangzhou\/port lotniczy Kanton, Kanton (Guangzhou), Chiny","latitude":23.184,"longitude":113.266},{"code":"CAP","name":"Cap","latitude":19.732,"longitude":-72.195},{"code":"CAS","name":"Anfa, Casablanca, Maroko","latitude":33.553,"longitude":-7.661},{"code":"CAV","name":"Cazombo, Angola","latitude":-11.894,"longitude":22.916},{"code":"CAY","name":"Kajenna, Gujana Francuska","latitude":4.82,"longitude":-52.36},{"code":"CBB","name":"Jorge Wilstermann, Cochabamba, Boliwia","latitude":-17.421,"longitude":-66.177},{"code":"CBG","name":"Cambridge, Wielka Brytania","latitude":52.205,"longitude":0.175},{"code":"CBO","name":"Cotabato, Filipiny","latitude":0,"longitude":0},{"code":"CBR","name":"Canberra, Australia","latitude":-35.308,"longitude":149.194},{"code":"CBG","name":"Cambridge, Wielka Brytania","latitude":52.205,"longitude":0.175},{"code":"CBH","name":"Baszszar, Algieria","latitude":0,"longitude":0},{"code":"CBL","name":"Tomas de Heres, Ciudad Bolivar, Wenezuela","latitude":8.122,"longitude":-63.537},{"code":"CBN","name":"Cirebon, Indonezja","latitude":-6.756,"longitude":108.539},{"code":"CBQ","name":"Margaret Ekpo, Calabar, Nigeria","latitude":4.976,"longitude":8.347},{"code":"CBT","name":"Catumbela, Angola","latitude":0,"longitude":0},{"code":"CBV","name":"Cob\u00e1n, Gwatemala","latitude":15.469,"longitude":-90.407},{"code":"CCF","name":"Carcassonne, Francja","latitude":43.216,"longitude":2.306},{"code":"CCJ","name":"Kozhikode, Indie","latitude":11.136,"longitude":75.955},{"code":"CCP","name":"Carriel Sur, Concepci\u00f3n, Chile","latitude":-36.773,"longitude":-73.063},{"code":"CCS","name":"Maiquetia k. Caracas, Wenezuela","latitude":10.603,"longitude":-66.991},{"code":"CCU","name":"Netaji Subhash Chandra Bose, Dum Dum k. Kolkaty, Indie","latitude":22.655,"longitude":88.447},{"code":"CCV","name":"Craig Cove, Vanuatu","latitude":0,"longitude":0},{"code":"CCZ","name":"Frazers Hog Cay, Bahamy","latitude":25.417,"longitude":-77.881},{"code":"CDB","name":"Cold Bay, Alaska, Stany Zjednoczone","latitude":55.206,"longitude":-162.724},{"code":"CDC","name":"Cedar City, Utah, USA","latitude":37.701,"longitude":-113.099},{"code":"CDG","name":"Charles De Gaulle, Roissy k. Pary\u017ca, Francja","latitude":49.013,"longitude":2.55},{"code":"CDP","name":"Kadapa, Indie","latitude":14.51,"longitude":78.773},{"code":"CDV","name":"Cordova, Alaska, Stany Zjednoczone","latitude":60.492,"longitude":-145.477},{"code":"CEB","name":"Lapu","latitude":7.165,"longitude":124.21},{"code":"CEG","name":"Chester, Wielka Brytania","latitude":53.178,"longitude":-2.978},{"code":"CEN","name":"Ciudad Obreg\u00f3n, Meksyk","latitude":27.392,"longitude":-109.833},{"code":"CEO","name":"Waco Kungo, Angola","latitude":0,"longitude":0},{"code":"CEQ","name":"Cannes, Francja","latitude":43.542,"longitude":6.953},{"code":"CER","name":"Cherbourg, Francja","latitude":49.65,"longitude":-1.47},{"code":"CET","name":"Cholet, Francja","latitude":47.082,"longitude":-0.877},{"code":"CFE","name":"Clermont","latitude":45.786,"longitude":3.169},{"code":"CFR","name":"Carpiquet, Caen, Francja","latitude":49.173,"longitude":-0.45},{"code":"CFU","name":"Korfu, Grecja","latitude":39.602,"longitude":19.912},{"code":"CGB","name":"Cuiab\u00e1, Brazylia","latitude":-15.653,"longitude":-56.117},{"code":"CGH","name":"Congonhas, Sao Paulo, Brazylia","latitude":-23.627,"longitude":-46.655},{"code":"CGK","name":"Soekarno","latitude":-6.126,"longitude":106.656},{"code":"CGN","name":"Kolonia\/Bonn, Niemcy","latitude":50.866,"longitude":7.143},{"code":"CGO","name":"Xinzheng, Zhengzhou, Chi\u0144ska Republika Ludowa","latitude":34.519,"longitude":113.841},{"code":"CGP","name":"\u0106ottogram, Bangladesz","latitude":22.249,"longitude":91.813},{"code":"CGQ","name":"Longija, Changchun, Chiny","latitude":0,"longitude":0},{"code":"CGR","name":"Campo Grande, Brazylia","latitude":-20.469,"longitude":-54.672},{"code":"CGY","name":"Cagayan de Oro, Filipiny","latitude":0,"longitude":0},{"code":"CHA","name":"Chattanooga, Tennessee, USA","latitude":35.035,"longitude":-85.204},{"code":"CHC","name":"Christchurch, Nowa Zelandia","latitude":-43.489,"longitude":172.532},{"code":"CHM","name":"FAP Jaime Montreuil Morales Chimbote, Peru","latitude":-9.151,"longitude":-78.524},{"code":"CHQ","name":"Chania, Grecja","latitude":35.532,"longitude":24.149},{"code":"CHR","name":"Ch\u00e2teauroux, Francja","latitude":46.862,"longitude":1.731},{"code":"CHS","name":"Charleston, Karolina Po\u0142udniowa, USA","latitude":32.899,"longitude":-80.04},{"code":"CHT","name":"Tuuta, Wyspy Chatham, Nowa Zelandia","latitude":-43.81,"longitude":-176.457},{"code":"CIA","name":"Ciampino, Rzym, W\u0142ochy","latitude":41.799,"longitude":12.595},{"code":"CIF","name":"Chifeng, Chi\u0144ska Republika Ludowa","latitude":0,"longitude":0},{"code":"CIJ","name":"Capitan Anibal Arab, Cobija, Boliwia","latitude":-11.04,"longitude":-68.783},{"code":"CIP","name":"Chipata, Zambia","latitude":0,"longitude":0},{"code":"CIS","name":"Kanton, Kiribati","latitude":-2.767,"longitude":0},{"code":"CIT","name":"Szymkent, Kazachstan","latitude":42.364,"longitude":69.479},{"code":"CIW","name":"Canouan, Saint Vincent i Grenadyny","latitude":12.699,"longitude":-61.342},{"code":"CIX","name":"Capitan CAF Jose A. Quinones Gonzales, Chiclayo, Peru","latitude":-6.787,"longitude":-79.828},{"code":"CJA","name":"Mayor General FAP Armando Revoredo Iglesias, Cajamarca, Peru","latitude":0,"longitude":0},{"code":"CJB","name":"Coimbatore, Indie","latitude":11.031,"longitude":77.044},{"code":"CJC","name":"El Loa, Calama, Chile","latitude":-22.499,"longitude":-68.904},{"code":"CJS","name":"Ciudad Ju\u00e1rez, Meksyk","latitude":31.636,"longitude":-106.429},{"code":"CJU","name":"Czed\u017cu, Korea Po\u0142udniowa","latitude":33.511,"longitude":126.493},{"code":"CKG","name":"Jiangbei, Chongqing, Chi\u0144ska Republika Ludowa","latitude":29.719,"longitude":106.641},{"code":"CKY","name":"Konakry, Gwinea","latitude":0,"longitude":0},{"code":"CLE","name":"Hopkins, Cleveland, Ohio, USA","latitude":41.412,"longitude":-81.85},{"code":"CLJ","name":"Klu\u017c","latitude":46.785,"longitude":23.686},{"code":"CLO","name":"Alfonso Bonilla Arag\u00f3n, Cali, Kolumbia","latitude":3.543,"longitude":-76.381},{"code":"CLQ","name":"Colima, Meksyk","latitude":19.277,"longitude":-103.577},{"code":"CLT","name":"Charlotte, Karolina P\u00f3\u0142nocna, USA","latitude":35.214,"longitude":-80.943},{"code":"CLY","name":"Calvi, Francja","latitude":42.531,"longitude":8.793},{"code":"CMB","name":"Kolombo, Sri Lanka","latitude":7.181,"longitude":79.884},{"code":"CME","name":"Ciudad del Carmen, Meksyk","latitude":18.654,"longitude":-91.799},{"code":"CMF","name":"Chamb\u00e9ry, Francja","latitude":45.638,"longitude":5.88},{"code":"CMG","name":"Corumb\u00e1, Brazylia","latitude":-19.012,"longitude":-57.673},{"code":"CMH","name":"Columbus, Ohio, USA","latitude":39.998,"longitude":-82.892},{"code":"CMN","name":"Mohammed V, Casablanca, Maroko","latitude":33.368,"longitude":-7.588},{"code":"CMR","name":"Colmar, Francja","latitude":48.11,"longitude":7.359},{"code":"CMW","name":"Ignacio Agramonte, Camaguey, Kuba","latitude":21.42,"longitude":-77.847},{"code":"CND","name":"Konstanca, Rumunia","latitude":44.362,"longitude":28.488},{"code":"CNF","name":"Belo Horizonte, Brazylia","latitude":-19.634,"longitude":-43.969},{"code":"CNG","name":"Cognac, Francja","latitude":45.658,"longitude":-0.318},{"code":"CNQ","name":"Corrientes, Argentyna","latitude":-27.445,"longitude":-58.762},{"code":"CNS","name":"Cairns, Queensland, Australia","latitude":-16.886,"longitude":145.755},{"code":"COH","name":"Cooch Behar, Indie","latitude":26.33,"longitude":89.467},{"code":"COK","name":"Koczin, Indie","latitude":0,"longitude":0},{"code":"COO","name":"Kotonu, Benin","latitude":6.357,"longitude":2.384},{"code":"COR","name":"Ingeniero Ambrosio L.V. Taravella, C\u00f3rdoba, Argentyna","latitude":-31.324,"longitude":-64.208},{"code":"COS","name":"Colorado Springs, Kolorado, USA","latitude":38.806,"longitude":-104.7},{"code":"CPC","name":"San Mart\u00edn de los Andes, Argentyna","latitude":-40.075,"longitude":-71.137},{"code":"CPE","name":"Campeche, Meksyk","latitude":19.817,"longitude":-90.5},{"code":"CPH","name":"Amager k. Kopenhagi, Dania","latitude":55.618,"longitude":12.656},{"code":"CPO","name":"Chamonate Copiap\u00f3, Chile","latitude":-27.296,"longitude":-70.414},{"code":"CPR","name":"Casper, Wyoming, USA","latitude":42.908,"longitude":-106.464},{"code":"CPT","name":"Kapsztad, RPA","latitude":-33.965,"longitude":18.602},{"code":"CPV","name":"Campina Grande, Brazylia","latitude":0,"longitude":0},{"code":"CRA","name":"Krajowa, Rumunia","latitude":44.318,"longitude":23.889},{"code":"CRD","name":"Comodoro Rivadavia, Argentyna","latitude":-45.785,"longitude":-67.466},{"code":"CRL","name":"Charleroi, Belgia","latitude":50.459,"longitude":4.454},{"code":"CRP","name":"Corpus Christi, Teksas, USA","latitude":27.77,"longitude":-97.501},{"code":"CRQ","name":"Caravelas, Brazylia","latitude":-17.652,"longitude":-39.253},{"code":"CRV","name":"Crotone, W\u0142ochy","latitude":38.997,"longitude":17.08},{"code":"CSB","name":"Caransebe?, Rumunia","latitude":45.42,"longitude":22.253},{"code":"CSK","name":"Cap Skirring, Senegal","latitude":12.41,"longitude":-16.746},{"code":"CST","name":"Castaway Island, Fid\u017ci","latitude":0,"longitude":0},{"code":"CTA","name":"Katania, W\u0142ochy","latitude":37.467,"longitude":15.066},{"code":"CTC","name":"Catamarca, Argentyna","latitude":-28.596,"longitude":-65.752},{"code":"CTG","name":"Cartagena, Kolumbia","latitude":10.442,"longitude":-75.513},{"code":"CTM","name":"Chetumal, Meksyk","latitude":18.504,"longitude":-88.327},{"code":"CTS","name":"Chitose, Sapporo, Japonia","latitude":42.775,"longitude":141.692},{"code":"CTT","name":"Le Castellet, Francja","latitude":43.252,"longitude":5.785},{"code":"CTU","name":"Shuangliu, Chengdu, Chi\u0144ska Republika Ludowa","latitude":30.578,"longitude":103.947},{"code":"CUC","name":"Camilo Daza, Cucuta, Kolumbia","latitude":7.928,"longitude":-72.511},{"code":"CUE","name":"Mariscal Lamar, Cuenca, Ekwador","latitude":-2.889,"longitude":-78.984},{"code":"CUF","name":"Cuneo, W\u0142ochy","latitude":44.546,"longitude":7.622},{"code":"CUR","name":"Hato, k. Willemstad, Cura\u00e7ao","latitude":12.189,"longitude":-68.96},{"code":"CUN","name":"Canc\u00fan, Meksyk","latitude":21.036,"longitude":-86.877},{"code":"CUL","name":"Culiac\u00e1n, Meksyk","latitude":24.764,"longitude":-107.474},{"code":"CUM","name":"Cuman\u00e1, Wenezuela","latitude":10.45,"longitude":-64.13},{"code":"CUP","name":"Car\u00fapano, Wenezuela","latitude":10.66,"longitude":-63.262},{"code":"CUU","name":"Chihuahua, Meksyk","latitude":28.703,"longitude":-105.964},{"code":"CUZ","name":"Alejandro Velasco Astete, Cuzco, Peru","latitude":-13.536,"longitude":-71.939},{"code":"CVG","name":"Cincinnati\/Northern Kentucky International, Hebron, Kentucky k. Cincinnati, Ohio, USA","latitude":39.046,"longitude":-84.662},{"code":"CVJ","name":"Cuernavaca, Meksyk","latitude":18.835,"longitude":-99.262},{"code":"CVM","name":"Ciudad Victoria, Meksyk","latitude":23.704,"longitude":-98.956},{"code":"CVT","name":"Coventry, Wielka Brytania","latitude":52.37,"longitude":-1.48},{"code":"CWB","name":"Afonso Pena, Kurytyba, Brazylia","latitude":-25.528,"longitude":-49.176},{"code":"CWL","name":"Cardiff, Wielka Brytania","latitude":51.397,"longitude":-3.343},{"code":"CXB","name":"Koks Bad\u017aar, Bangladesz","latitude":21.452,"longitude":91.964},{"code":"CXI","name":"Banana, Kiribati","latitude":1.986,"longitude":-157.35},{"code":"CXJ","name":"Caxias do Sul, Brazylia","latitude":-29.197,"longitude":-51.188},{"code":"CXP","name":"Cilacap, Indonezja","latitude":-7.645,"longitude":109.034},{"code":"CYO","name":"Cayo Largo del Sur, Kuba","latitude":21.616,"longitude":-81.546},{"code":"CYS","name":"Cheyenne, Wyoming, Stany Zjednoczone","latitude":41.156,"longitude":-104.812},{"code":"CZE","name":"Jos\u00e9 Leonardo Chirino, Coro, Wenezuela","latitude":11.415,"longitude":-69.681},{"code":"CZL","name":"Konstantyna, Algieria","latitude":36.277,"longitude":6.624},{"code":"CZM","name":"Cozumel, Meksyk","latitude":20.522,"longitude":-86.926},{"code":"CZU","name":"Las Brujas, Corozal, Kolumbia","latitude":9.332,"longitude":-75.286},{"code":"DAC","name":"Zia, Dakka, Bangladesz","latitude":23.843,"longitude":90.398},{"code":"DAD","name":"\u0110a N?ng, Wietnam","latitude":16.044,"longitude":108.199},{"code":"DAL","name":"Love Field, Dallas, Teksas, USA","latitude":32.847,"longitude":-96.852},{"code":"DAM","name":"Damaszek, Syria","latitude":33.411,"longitude":36.516},{"code":"DAR","name":"Dar es Salam, Tanzania","latitude":-6.878,"longitude":39.203},{"code":"DAV","name":"Enrique Malek, David, Panama","latitude":8.391,"longitude":-82.435},{"code":"DAY","name":"James M. Cox, Dayton, Ohio, USA","latitude":39.902,"longitude":-84.219},{"code":"DBT","name":"Debre Tabor, Etiopia","latitude":0,"longitude":0},{"code":"DBV","name":"Dubrownik, Chorwacja","latitude":42.561,"longitude":18.268},{"code":"DCA","name":"Ronald Reagan, Arlington, Wirginia k. Waszyngtonu, USA","latitude":38.852,"longitude":-77.037},{"code":"DCF","name":"Canefield, Roseau, Dominika","latitude":15.337,"longitude":-61.392},{"code":"DEB","name":"Debreczyn, W\u0119gry","latitude":47.489,"longitude":21.615},{"code":"DEL","name":"Indira Gandhi, New Delhi, Indie","latitude":28.566,"longitude":77.103},{"code":"DEM","name":"Dembidolo, Etiopia","latitude":0,"longitude":0},{"code":"DEN","name":"Denver, Kolorado, USA","latitude":39.858,"longitude":-104.667},{"code":"DES","name":"Desroches, Seszele","latitude":-5.696,"longitude":53.654},{"code":"DEZ","name":"Dajr az","latitude":35.285,"longitude":40.176},{"code":"DFW","name":"Dallas","latitude":32.896,"longitude":-97.037},{"code":"DGO","name":"Durango, Meksyk","latitude":24.124,"longitude":-104.528},{"code":"DGT","name":"Sibulan, Filipiny","latitude":9.334,"longitude":123.302},{"code":"DGU","name":"D\u00e9dougou, Burkina Faso","latitude":0,"longitude":0},{"code":"DHN","name":"Dothan, Alabama, USA","latitude":31.321,"longitude":-85.449},{"code":"DHR","name":"De Kooy, Den Helder, Holandia","latitude":52.923,"longitude":4.781},{"code":"DIE","name":"Antsiranana, Madagaskar","latitude":-12.349,"longitude":49.292},{"code":"DIJ","name":"Dijon, Francja","latitude":47.269,"longitude":5.09},{"code":"DIL","name":"Dili, Timor Wschodni","latitude":0,"longitude":0},{"code":"DIR","name":"Dire Daua, Etiopia","latitude":9.625,"longitude":41.854},{"code":"DIS","name":"Loubomo, Kongo","latitude":0,"longitude":0},{"code":"DIY","name":"Diyarbakir, Turcja","latitude":37.894,"longitude":40.201},{"code":"DJB","name":"Jambi, Indonezja","latitude":0,"longitude":0},{"code":"DJE","name":"Zarzis, D\u017cerba, Tunezja","latitude":33.875,"longitude":10.775},{"code":"DJG","name":"D\u017canat, Algieria","latitude":24.293,"longitude":9.452},{"code":"DJJ","name":"Sentani, Jayapura, Indonezja","latitude":-2.577,"longitude":140.516},{"code":"DJM","name":"Djambala, Kongo","latitude":0,"longitude":0},{"code":"DJO","name":"Daloa, Wybrze\u017ce Ko\u015bci S\u0142oniowej","latitude":6.792,"longitude":-6.473},{"code":"DKR","name":"Leopold Sedal Senghor, Dakar, Senegal","latitude":14.739,"longitude":-17.49},{"code":"DLA","name":"Duala, Kamerun","latitude":4.006,"longitude":9.719},{"code":"DLC","name":"Zhoushuizi, Dalian, Chi\u0144ska Republika Ludowa","latitude":38.966,"longitude":121.538},{"code":"DLG","name":"Dillingham, Alaska, Stany Zjednoczone","latitude":59.045,"longitude":-158.503},{"code":"DLM","name":"Dalaman, Turcja","latitude":36.713,"longitude":28.793},{"code":"DLY","name":"Eromango, Vanuatu","latitude":0,"longitude":0},{"code":"DMB","name":"Taraz, Kazachstan","latitude":0,"longitude":0},{"code":"DMM","name":"King Fahd, Dhahran k. Dammam, Arabia Saudyjska","latitude":26.471,"longitude":49.798},{"code":"DND","name":"Dundee, Szkocja, Wielka Brytania","latitude":56.453,"longitude":-3.026},{"code":"DNK","name":"Dniepr, Ukraina","latitude":48.357,"longitude":35.102},{"code":"DNR","name":"Pleurtuit, Francja","latitude":48.588,"longitude":-2.08},{"code":"DOD","name":"Dodoma, Tanzania","latitude":-6.17,"longitude":35.752},{"code":"DOG","name":"Dongola, Sudan","latitude":19.154,"longitude":30.43},{"code":"DOH","name":"Doha, Katar","latitude":25.261,"longitude":51.565},{"code":"DOK","name":"Donieck, Ukraina","latitude":48.073,"longitude":37.74},{"code":"DOM","name":"Melville Hall, Roseau, Dominika","latitude":15.547,"longitude":-61.3},{"code":"DOR","name":"Dori, Burkina Faso","latitude":0,"longitude":0},{"code":"DPS","name":"Denpasar, Indonezja","latitude":-8.748,"longitude":115.167},{"code":"DRS","name":"Drezno, Niemcy","latitude":51.133,"longitude":13.767},{"code":"DRW","name":"Darwin, Australia","latitude":0,"longitude":0},{"code":"DSC","name":"Dschang, Kamerun","latitude":0,"longitude":0},{"code":"DSD","name":"La Dasirade, Grande","latitude":0,"longitude":0},{"code":"DSM","name":"Des Moines, Iowa, USA","latitude":41.534,"longitude":-93.663},{"code":"DTM","name":"Dortmund, Niemcy","latitude":51.518,"longitude":7.612},{"code":"DTW","name":"Romulus, Michigan k. Detroit, Michigan, USA","latitude":42.212,"longitude":-83.353},{"code":"DUB","name":"Dublin, Irlandia","latitude":53.421,"longitude":-6.27},{"code":"DUD","name":"Dunedin, Nowa Zelandia","latitude":-45.928,"longitude":170.198},{"code":"DUR","name":"King Shaka, Durban, RPA","latitude":-29.97,"longitude":30.95},{"code":"DUS","name":"D\u00fcsseldorf, Niemcy","latitude":51.289,"longitude":6.767},{"code":"DUT","name":"Unalaska, Alaska, Stany Zjednoczone","latitude":53.9,"longitude":-166.543},{"code":"DVO","name":"Francisco Bangoy, Davao, Filipiny","latitude":0,"longitude":0},{"code":"DWA","name":"Dwangwa, Malawi","latitude":0,"longitude":0},{"code":"DWB","name":"Soalala, Madagaskar","latitude":0,"longitude":0},{"code":"DXB","name":"Dubaj, Zjednoczone Emiraty Arabskie","latitude":25.255,"longitude":55.364},{"code":"DYS","name":"Dyess, Teksas, Stany Zjednoczone","latitude":32.421,"longitude":-99.854},{"code":"DYU","name":"Duszanbe, Tad\u017cykistan","latitude":38.543,"longitude":68.825},{"code":"DZA","name":"Dzaoudzi, Majotta","latitude":-12.805,"longitude":45.281},{"code":"EAE","name":"Emae, Vanuatu","latitude":0,"longitude":0},{"code":"EAM","name":"Nad\u017cran, Arabia Saudyjska","latitude":17.611,"longitude":44.419},{"code":"EAS","name":"San Sebasti\u00e1n, Hiszpania","latitude":43.356,"longitude":-1.791},{"code":"EBA","name":"Campo nell'Elba, W\u0142ochy","latitude":42.76,"longitude":10.239},{"code":"EBB","name":"Entebbe, Uganda","latitude":0.042,"longitude":32.443},{"code":"EBD","name":"Al","latitude":13.153,"longitude":30.232},{"code":"EBJ","name":"Esbjerg, Dania","latitude":55.526,"longitude":8.553},{"code":"EBM","name":"Al","latitude":31.704,"longitude":9.254},{"code":"EBU","name":"Saint","latitude":45.54,"longitude":4.296},{"code":"EBW","name":"Ebolowa, Mozambik","latitude":0,"longitude":0},{"code":"EDI","name":"Edynburg, Wielka Brytania","latitude":55.95,"longitude":-3.373},{"code":"EDL","name":"Eldoret, Kenia","latitude":0.404,"longitude":35.238},{"code":"EDM","name":"La Roche","latitude":46.702,"longitude":-1.379},{"code":"EFD","name":"Ellington Field, Houston, Teksas, USA","latitude":29.607,"longitude":-95.159},{"code":"EFL","name":"Kefalinia, Grecja","latitude":38.12,"longitude":20.501},{"code":"EGC","name":"Bergerac, Francja","latitude":44.825,"longitude":0.519},{"code":"EIN","name":"Eindhoven, Holandia","latitude":51.45,"longitude":5.374},{"code":"EIS","name":"Beef Island k. Tortola, Brytyjskie Wyspy Dziewicze","latitude":18.445,"longitude":-64.543},{"code":"EJA","name":"Barrancabermeja, Kolumbia","latitude":7.024,"longitude":-73.807},{"code":"EJH","name":"Al","latitude":26.198,"longitude":36.476},{"code":"ELH","name":"Eleuthera, Bahamy","latitude":25.476,"longitude":-76.681},{"code":"ELP","name":"El Paso, Teksas, USA","latitude":31.807,"longitude":-106.378},{"code":"ELQ","name":"Burajda, Arabia Saudyjska","latitude":26.303,"longitude":43.774},{"code":"ELS","name":"East London, RPA","latitude":-33.036,"longitude":27.826},{"code":"ELT","name":"At","latitude":28.209,"longitude":33.645},{"code":"EMA","name":"East Midlands k. Derby, Wielka Brytania","latitude":52.831,"longitude":-1.328},{"code":"EME","name":"Emden, Niemcy","latitude":53.391,"longitude":7.227},{"code":"EMN","name":"An","latitude":16.622,"longitude":-7.314},{"code":"ENA","name":"Kenai, Alaska, Stany Zjednoczone","latitude":60.573,"longitude":-151.245},{"code":"ENC","name":"Nancy, Francja","latitude":48.692,"longitude":6.23},{"code":"ENE","name":"Ende, Indonezja","latitude":-8.849,"longitude":121.662},{"code":"ENF","name":"Enonteki\u00f6, Finlandia","latitude":68.362,"longitude":23.424},{"code":"ENS","name":"Twente, Enschede, Holandia","latitude":52.27,"longitude":6.874},{"code":"ENU","name":"Enugu, Nigeria","latitude":6.474,"longitude":7.562},{"code":"EOH","name":"Olaya Herrera, Medell\u00edn, Kolumbia","latitude":6.22,"longitude":-75.591},{"code":"EPL","name":"\u00c9pinal, Francja","latitude":48.325,"longitude":6.07},{"code":"EQS","name":"Esquel, Argentyna","latitude":-42.908,"longitude":-71.139},{"code":"ERC","name":"Erzincan, Turcja","latitude":39.71,"longitude":39.526},{"code":"ERF","name":"Erfurt, Niemcy","latitude":50.98,"longitude":10.958},{"code":"ERH","name":"Ar","latitude":31.949,"longitude":-4.401},{"code":"ERZ","name":"Erzurum, Turcja","latitude":39.956,"longitude":41.17},{"code":"ESB","name":"Ankara, Turcja","latitude":40.128,"longitude":32.995},{"code":"ESE","name":"Ensenada, Meksyk","latitude":31.795,"longitude":-116.602},{"code":"ESF","name":"Alexandria, Luizjana, USA","latitude":31.395,"longitude":-92.296},{"code":"ESH","name":"Lancing, Wielka Brytania","latitude":50.836,"longitude":-0.297},{"code":"ESM","name":"General Rivadeneira, Esmeraldas, Ekwador","latitude":0,"longitude":0},{"code":"ESS","name":"Essen, Niemcy","latitude":51.401,"longitude":6.936},{"code":"ETH","name":"Ejlat, Izrael","latitude":29.561,"longitude":34.96},{"code":"ETZ","name":"Metz, Francja","latitude":48.982,"longitude":6.254},{"code":"EUA","name":"'Eua, Tonga","latitude":0,"longitude":0},{"code":"EUX","name":"Franklin Delano Roosevelt, Sint Eustatius","latitude":17.496,"longitude":-62.979},{"code":"EVE","name":"Skanland, Norwegia","latitude":68.491,"longitude":16.678},{"code":"EVG","name":"Sveg, Szwecja","latitude":62.048,"longitude":14.423},{"code":"EVN","name":"Zvartnots, Erywa\u0144, Armenia","latitude":40.148,"longitude":44.397},{"code":"EWO","name":"Ewo, Kongo","latitude":0,"longitude":0},{"code":"EWR","name":"Newark Liberty, Newark, New Jersey k. Nowego Jorku, USA","latitude":40.692,"longitude":-74.169},{"code":"EXT","name":"Exeter, Wielka Brytania","latitude":50.734,"longitude":-3.414},{"code":"EYL","name":"Yelimane, Mali","latitude":0,"longitude":0},{"code":"EYW","name":"Key West, Floryda, USA","latitude":24.556,"longitude":-81.759},{"code":"EZE","name":"Ministro Pistarini, Ezeiza k. Buenos Aires, Argentyna","latitude":0,"longitude":0},{"code":"EZS","name":"Elazig, Turcja","latitude":38.607,"longitude":39.291},{"code":"FAB","name":"Farnborough, Wielka Brytania","latitude":51.276,"longitude":-0.776},{"code":"FAE","name":"V\u00e1gar, Wyspy Owcze","latitude":62.064,"longitude":-7.277},{"code":"FAH","name":"Farah, Afganistan","latitude":0,"longitude":0},{"code":"FAI","name":"Fairbanks, Alaska, USA","latitude":64.815,"longitude":-147.856},{"code":"FAJ","name":"Diego Jimenez Torres, Fajardo, Portoryko","latitude":18.309,"longitude":-65.662},{"code":"FAN","name":"Vestbygd, Norwegia","latitude":58.1,"longitude":6.625},{"code":"FAO","name":"Faro, Portugalia","latitude":37.014,"longitude":-7.966},{"code":"FAT","name":"Yosemite, Fresno, Kalifornia, USA","latitude":36.776,"longitude":-119.718},{"code":"FAV","name":"Fakarava, Polinezja Francuska","latitude":-16.054,"longitude":-145.657},{"code":"FBD","name":"Fajzabad, Afganistan","latitude":0,"longitude":0},{"code":"FBM","name":"Lubumbashi, Demokratyczna Republika Konga","latitude":-11.591,"longitude":27.531},{"code":"FBU","name":"Fornebu, Oslo, Norwegia","latitude":59.896,"longitude":10.617},{"code":"FCO","name":"Leonardo Da Vinci, Fiumicino k. Rzymu, W\u0142ochy","latitude":41.813,"longitude":12.253},{"code":"FDF","name":"Aim\u00e9 C\u00e9saire, Fort","latitude":14.591,"longitude":-61.003},{"code":"FDH","name":"Friedrichshafen, Niemcy","latitude":47.671,"longitude":9.511},{"code":"FDU","name":"Bandundu, Demokratyczna Republika Konga","latitude":-3.311,"longitude":17.382},{"code":"FEL","name":"F\u00fcrstenfeldbruck, Niemcy","latitude":48.206,"longitude":11.267},{"code":"FEZ","name":"Fez, Maroko","latitude":33.927,"longitude":-4.978},{"code":"FFD","name":"Fairford, Anglia, Wielka Brytania","latitude":51.682,"longitude":-1.79},{"code":"FGD","name":"Fudajrik, Mauretania","latitude":0,"longitude":0},{"code":"FHU","name":"Fort Huachuca, Arizona, Stany Zjednoczone","latitude":31.588,"longitude":-110.344},{"code":"FIG","name":"Fria, Gwinea","latitude":10.351,"longitude":-13.569},{"code":"FIH","name":"Kinszasa, Demokratyczna Republika Konga","latitude":-4.386,"longitude":15.444},{"code":"FJR","name":"Fujairah, Zjednoczone Emiraty Arabskie","latitude":25.112,"longitude":56.324},{"code":"FKI","name":"Bangoka, Kisangani, Demokratyczna Republika Konga","latitude":0.518,"longitude":25.155},{"code":"FKQ","name":"Fak","latitude":0,"longitude":0},{"code":"FLA","name":"Florencia, Kolumbia","latitude":1.59,"longitude":-75.564},{"code":"FLL","name":"Fort Lauderdale k. Hollywood, Floryda, USA","latitude":26.072,"longitude":-80.153},{"code":"FLN","name":"Florian\u00f3polis, Brazylia","latitude":-27.672,"longitude":-48.548},{"code":"FLO","name":"Florence, Karolina Po\u0142udniowa, USA","latitude":34.185,"longitude":-79.724},{"code":"FLR","name":"Amerigo Vespucci, Florencja, W\u0142ochy","latitude":43.81,"longitude":11.205},{"code":"FMA","name":"Formosa, Argentyna","latitude":-26.212,"longitude":-58.228},{"code":"FMN","name":"Farmington, Nowy Meksyk, Stany Zjednoczone","latitude":36.741,"longitude":-108.23},{"code":"FMO","name":"M\u00fcnster\/Osnabr\u00fcck, Niemcy","latitude":52.134,"longitude":7.685},{"code":"FMY","name":"Page Field, Floryda, USA","latitude":26.586,"longitude":-81.863},{"code":"FNA","name":"Freetown, Sierra Leone","latitude":8.616,"longitude":-13.195},{"code":"FNC","name":"Funchal, Madera, Portugalia","latitude":0,"longitude":0},{"code":"FNG","name":"Fada N\u2019gourma, Burkina Faso","latitude":0,"longitude":0},{"code":"FNI","name":"N\u00eemes, Francja","latitude":43.757,"longitude":4.416},{"code":"FNJ","name":"Pjongjang, Korea P\u00f3\u0142nocna","latitude":39.033,"longitude":125.783},{"code":"FOC","name":"Fuzhou, Chi\u0144ska Republika Ludowa","latitude":25.933,"longitude":119.662},{"code":"FOG","name":"Foggia, W\u0142ochy","latitude":41.433,"longitude":15.535},{"code":"FOM","name":"Nkounja, Kamerun","latitude":5.637,"longitude":10.751},{"code":"FOR","name":"Fortaleza, Brazylia","latitude":-3.776,"longitude":-38.532},{"code":"FOU","name":"Fougamou, Gabon","latitude":0,"longitude":0},{"code":"FPO","name":"Freeport, Bahamy","latitude":26.559,"longitude":-78.695},{"code":"FRA","name":"Frankfurt nad Menem, Niemcy","latitude":50.026,"longitude":8.543},{"code":"FRC","name":"Franca, Brazylia","latitude":-20.592,"longitude":-47.383},{"code":"FRL","name":"Forli, W\u0142ochy","latitude":44.195,"longitude":12.07},{"code":"FRO","name":"Floro, Norwegia","latitude":61.584,"longitude":5.025},{"code":"FRS","name":"Flores, Gwatemala","latitude":0,"longitude":0},{"code":"FRU","name":"Biszkek, Kirgistan","latitude":43.062,"longitude":74.478},{"code":"FRW","name":"Francistown, Botswana","latitude":-21.159,"longitude":27.474},{"code":"FSC","name":"Figari, Francja","latitude":41.501,"longitude":9.098},{"code":"FSM","name":"Fort Smith, Arkansas, Stany Zjednoczone","latitude":35.336,"longitude":-94.367},{"code":"FSP","name":"Saint","latitude":46.763,"longitude":-56.175},{"code":"FTA","name":"Futuna, Vanuatu","latitude":0,"longitude":0},{"code":"FTU","name":"T\u00f4lanaro, Madagaskar","latitude":-25.038,"longitude":46.956},{"code":"FUE","name":"Fuerteventura, Hiszpania","latitude":28.453,"longitude":-13.864},{"code":"FUK","name":"Fukuoka, Japonia","latitude":33.586,"longitude":130.45},{"code":"FUN","name":"Funafuti, Tuvalu","latitude":-8.517,"longitude":179.217},{"code":"FUT","name":"Leava, Wallis i Futuna","latitude":0,"longitude":0},{"code":"FXO","name":"Cuamba, Mozambik","latitude":-14.82,"longitude":36.532},{"code":"FYT","name":"Faya","latitude":17.917,"longitude":19.111},{"code":"FYV","name":"Fayetteville, Arkansas, USA","latitude":36.005,"longitude":-94.17},{"code":"FZO","name":"Filton, Wielka Brytania","latitude":51.519,"longitude":-2.591},{"code":"GAE","name":"Matmata, Kabis, Tunezja","latitude":33.877,"longitude":10.103},{"code":"GAF","name":"Kafsa, Tunezja","latitude":34.422,"longitude":8.822},{"code":"GAJ","name":"Yamagata, Japonia","latitude":38.412,"longitude":140.371},{"code":"GAO","name":"Guant\u00e1namo, Kuba","latitude":20.085,"longitude":-75.158},{"code":"GAQ","name":"Gao, Mali","latitude":16.248,"longitude":-0.005},{"code":"GAS","name":"Garissa, Kenia","latitude":-0.463,"longitude":39.648},{"code":"GBE","name":"Gaborone, Botswana","latitude":-24.555,"longitude":25.918},{"code":"GBK","name":"Gbangbatok, Sierra Leone","latitude":0,"longitude":0},{"code":"GCI","name":"Guernsey, Wielka Brytania","latitude":49.435,"longitude":-2.602},{"code":"GCK","name":"Garden City, Kansas, Stany Zjednoczone","latitude":37.927,"longitude":-100.724},{"code":"GCM","name":"Owen Roberts George Town, Kajmany","latitude":19.293,"longitude":-81.357},{"code":"GDL","name":"Guadalajara, Meksyk","latitude":20.522,"longitude":-103.311},{"code":"GDN","name":"Port lotniczy Gda\u0144sk im. Lecha Wa\u0142\u0119sy, Gda\u0144sk, Polska","latitude":54.377,"longitude":18.466},{"code":"GDQ","name":"Gonder, Etiopia","latitude":12.518,"longitude":37.432},{"code":"GDT","name":"JAGS McCartney, Cockburn Town, Turks i Caicos","latitude":0,"longitude":0},{"code":"GDX","name":"Magadan, Rosja","latitude":59.91,"longitude":150.717},{"code":"GEA","name":"Magenta, Numea, Nowa Kaledonia","latitude":-22.258,"longitude":166.473},{"code":"GEG","name":"Spokane, Waszyngton, USA","latitude":47.62,"longitude":-117.534},{"code":"GEO","name":"Cheddi Jagan, Georgetown, Gujana","latitude":0,"longitude":0},{"code":"GER","name":"Nueva Gerona, Kuba","latitude":21.835,"longitude":-82.784},{"code":"GEV","name":"G\u00e4llivare, Szwecja","latitude":67.132,"longitude":20.814},{"code":"GFK","name":"Mark Andrews, Grand Forks, Dakota P\u00f3\u0142nocna, USA","latitude":47.949,"longitude":-97.176},{"code":"GFY","name":"Grootfontein, Namibia","latitude":0,"longitude":0},{"code":"GGN","name":"Gagnoa, Wybrze\u017ce Ko\u015bci S\u0142oniowej","latitude":0,"longitude":0},{"code":"GGO","name":"Guiglo, Wybrze\u017ce Ko\u015bci S\u0142oniowej","latitude":0,"longitude":0},{"code":"GGS","name":"Gobernador Gregores, Argentyna","latitude":0,"longitude":0},{"code":"GGT","name":"Moss Town, Bahamy","latitude":0,"longitude":0},{"code":"GHA","name":"Ghardaja, Algieria","latitude":32.384,"longitude":3.794},{"code":"GHB","name":"Governor's Harbour, Bahamy","latitude":25.284,"longitude":-76.331},{"code":"GHF","name":"Giebelstadt, Niemcy","latitude":49.648,"longitude":9.966},{"code":"GHT","name":"Ghat, Libia","latitude":25.146,"longitude":10.143},{"code":"GIB","name":"Gibraltar","latitude":36.151,"longitude":-5.349},{"code":"GID","name":"Gitega, Burundi","latitude":0,"longitude":0},{"code":"GIG","name":"Galeao, Rio de Janeiro, Brazylia","latitude":-22.809,"longitude":-43.244},{"code":"GIL","name":"Gilgit, Pakistan","latitude":35.919,"longitude":74.334},{"code":"GIS","name":"Gisborne, Nowa Zelandia","latitude":-38.663,"longitude":177.978},{"code":"GIZ","name":"D\u017cizan, Arabia Saudyjska","latitude":16.901,"longitude":42.586},{"code":"GJA","name":"Guanaja, Honduras","latitude":16.445,"longitude":-85.906},{"code":"GJL","name":"D\u017cid\u017cili, Algieria","latitude":36.795,"longitude":5.873},{"code":"GKA","name":"Goroka, Papua","latitude":-6.082,"longitude":145.392},{"code":"GLA","name":"Glasgow, Wielka Brytania","latitude":55.872,"longitude":-4.433},{"code":"GLF","name":"Golfito, Kostaryka","latitude":8.654,"longitude":-83.182},{"code":"GLK","name":"Gaalkacyo, Somalia","latitude":0,"longitude":0},{"code":"GLO","name":"Gloucester, Wielka Brytania","latitude":51.894,"longitude":-2.167},{"code":"GMA","name":"Gemena, Demokratyczna Republika Konga","latitude":3.235,"longitude":19.771},{"code":"GMB","name":"Gambela, Etiopia","latitude":8.128,"longitude":34.563},{"code":"GME","name":"Homel, Bia\u0142oru\u015b","latitude":52.527,"longitude":31.017},{"code":"GMM","name":"Gamboma, Kongo","latitude":0,"longitude":0},{"code":"GMP","name":"Gimpo, Seul, Korea Po\u0142udniowa (dawniej SEL)","latitude":37.558,"longitude":126.791},{"code":"GMR","name":"Totegegie, Polinezja Francuska","latitude":-23.08,"longitude":-134.89},{"code":"GNB","name":"Grenoble, Francja","latitude":45.363,"longitude":5.329},{"code":"GND","name":"Grenada","latitude":12.004,"longitude":-61.786},{"code":"GNI","name":"L\u00fc Dao, Republika Chi\u0144ska","latitude":22.674,"longitude":121.458},{"code":"GNV","name":"Gainesville, Floryda, USA","latitude":29.69,"longitude":-82.272},{"code":"GNZ","name":"Ghanzi, Botswana","latitude":0,"longitude":0},{"code":"GOA","name":"Genua, W\u0142ochy","latitude":44.412,"longitude":8.842},{"code":"GOB","name":"Goba, Etiopia","latitude":0,"longitude":0},{"code":"GOH","name":"Nuuk, Grenlandia","latitude":64.191,"longitude":-51.678},{"code":"GOI","name":"Goa, Indie","latitude":15.381,"longitude":73.833},{"code":"GOM","name":"Goma, Demokratyczna Republika Konga","latitude":-1.671,"longitude":29.238},{"code":"GOR","name":"Gore, Etiopia","latitude":0,"longitude":0},{"code":"GOT","name":"Landvetter, G\u00f6teborg, Szwecja","latitude":57.663,"longitude":12.28},{"code":"GOU","name":"Garoua, Kamerun","latitude":9.336,"longitude":13.37},{"code":"GOY","name":"Ampara, Sri Lanka","latitude":7.337,"longitude":81.626},{"code":"GPA","name":"Araxos, Grecja","latitude":38.151,"longitude":21.426},{"code":"GPI","name":"Guapi, Kolumbia","latitude":2.57,"longitude":-77.898},{"code":"GPS","name":"Seymour, Baltra, Ekwador","latitude":-0.454,"longitude":-90.266},{"code":"GRB","name":"Green Bay, Wisconsin, USA","latitude":44.485,"longitude":-88.129},{"code":"GRG","name":"Gardez, Afganistan","latitude":0,"longitude":0},{"code":"GRJ","name":"George, RPA","latitude":-34.005,"longitude":22.379},{"code":"GRO","name":"Girona, Hiszpania","latitude":41.901,"longitude":2.76},{"code":"GRQ","name":"Eelde, Groningen, Holandia","latitude":53.119,"longitude":6.579},{"code":"GRR","name":"Gerald R. Ford, Grand Rapids, Michigan, USA","latitude":42.881,"longitude":-85.523},{"code":"GRS","name":"Grosseto, W\u0142ochy","latitude":42.761,"longitude":11.072},{"code":"GRU","name":"Guarulhos, Sao Paulo, Brazylia","latitude":-23.432,"longitude":-46.469},{"code":"GRX","name":"Federico Garc\u00eda Lorca, Grenada, Hiszpania","latitude":37.189,"longitude":-3.777},{"code":"GRY","name":"Gr\u00edmsey, Islandia","latitude":0,"longitude":0},{"code":"GSE","name":"G\u00f6teborg, Szwecja","latitude":57.775,"longitude":11.87},{"code":"GTF","name":"Great Falls, Montana, USA","latitude":47.482,"longitude":-111.371},{"code":"GTO","name":"Jalaluddin, Gorontalo, Indonezja","latitude":0.637,"longitude":122.852},{"code":"GUA","name":"La Aurora, Gwatemala","latitude":14.583,"longitude":-90.528},{"code":"GUD","name":"Goundam, Mali","latitude":0,"longitude":0},{"code":"GUI","name":"G\u00fciria, Wenezuela","latitude":10.574,"longitude":-62.313},{"code":"GUM","name":"Antonio B. Won Pat, Tamuning, Guam k. Hagatna, Guam, USA","latitude":13.484,"longitude":144.797},{"code":"GUT","name":"G\u00fctersloh, Niemcy","latitude":51.923,"longitude":8.306},{"code":"GUW","name":"Atyrau, Kazachstan","latitude":0,"longitude":0},{"code":"GVA","name":"Cointrin, Genewa, Szwajcaria","latitude":46.238,"longitude":6.109},{"code":"GWD","name":"Gwadar, Pakistan","latitude":25.233,"longitude":62.329},{"code":"GWL","name":"Gwalior, Indie","latitude":26.294,"longitude":78.228},{"code":"GWT","name":"Sylt, Niemcy","latitude":54.913,"longitude":8.34},{"code":"GWW","name":"Gatow, Niemcy","latitude":35.461,"longitude":-77.965},{"code":"GWY","name":"Carnamore k. Galway, Irlandia","latitude":53.301,"longitude":-8.939},{"code":"GXX","name":"Yagoua, Kamerun","latitude":0,"longitude":0},{"code":"GYA","name":"Guayaramer\u00edn, Boliwia","latitude":-10.822,"longitude":-65.346},{"code":"GYE","name":"Sim\u00f3n Bol\u00edvar, Guayaquil, Ekwador","latitude":-2.158,"longitude":-79.884},{"code":"GYI","name":"Gisenyi, Rwanda","latitude":-1.677,"longitude":29.259},{"code":"GYM","name":"Guaymas, Meksyk","latitude":27.969,"longitude":-110.925},{"code":"GYN","name":"Goi\u00e2nia, Brazylia","latitude":-16.631,"longitude":-49.222},{"code":"GZO","name":"Nusatupe, Gizo, Wyspy Salomona","latitude":0,"longitude":0},{"code":"GZT","name":"Gaziantep, Turcja","latitude":36.948,"longitude":37.479},{"code":"HAA","name":"Hasvik, Norwegia","latitude":70.487,"longitude":22.14},{"code":"HAD","name":"Halmstad, Szwecja","latitude":56.691,"longitude":12.82},{"code":"HAH","name":"Moroni, Komory","latitude":-11.534,"longitude":43.272},{"code":"HAJ","name":"Hanower, Niemcy","latitude":52.461,"longitude":9.685},{"code":"HAK","name":"Meilan, Haikou, Chi\u0144ska Republika Ludowa","latitude":0,"longitude":0},{"code":"HAM","name":"Hamburg, Niemcy","latitude":53.63,"longitude":9.988},{"code":"HAN","name":"Hanoi, Wietnam","latitude":21.222,"longitude":105.806},{"code":"HAS","name":"Hail, Arabia Saudyjska","latitude":27.438,"longitude":41.686},{"code":"HAU","name":"Haugesund, Norwegia","latitude":59.345,"longitude":5.208},{"code":"HAV","name":"Jose Marti, Hawana, Kuba","latitude":22.989,"longitude":-82.409},{"code":"HBA","name":"Hobart, Australia","latitude":-42.836,"longitude":147.51},{"code":"HBT","name":"King Khaled Military City, Arabia Saudyjska","latitude":27.901,"longitude":45.528},{"code":"HDY","name":"Hat Yai, Tajlandia","latitude":6.933,"longitude":100.393},{"code":"HEA","name":"Herat, Afganistan","latitude":34.21,"longitude":62.228},{"code":"HEH","name":"Heho, Mjanma","latitude":20.743,"longitude":96.792},{"code":"HEI","name":"Heide, Niemcy","latitude":0,"longitude":0},{"code":"HEL","name":"Vantaa k. Helsinek, Finlandia","latitude":60.32,"longitude":24.956},{"code":"HEM","name":"Malmi, Helsinki, Finlandia","latitude":60.254,"longitude":25.043},{"code":"HER","name":"Iraklion, Grecja","latitude":35.339,"longitude":25.18},{"code":"HFA","name":"Hajfa, Izrael","latitude":32.811,"longitude":35.044},{"code":"HFD","name":"wszystkie lotniska w Hartford, Connecticut, USA","latitude":41.736,"longitude":-72.65},{"code":"HFE","name":"Hefei, Chi\u0144ska Republika Ludowa","latitude":31.78,"longitude":117.298},{"code":"HFN","name":"H\u00f6fn, Islandia","latitude":64.296,"longitude":-15.227},{"code":"HFT","name":"Hammerfest, Norwegia","latitude":0,"longitude":0},{"code":"HGA","name":"Egal, Hargejsa, Somalia","latitude":9.518,"longitude":44.089},{"code":"HGH","name":"Xiaoshan, Hangzhou, Chi\u0144ska Republika Ludowa","latitude":30.228,"longitude":120.432},{"code":"HGL","name":"Helgoland, Niemcy","latitude":0,"longitude":0},{"code":"HGO","name":"Korhogo, Wybrze\u017ce Ko\u015bci S\u0142oniowej","latitude":9.387,"longitude":-5.556},{"code":"HGS","name":"Hastings, Sierra Leone","latitude":8.394,"longitude":-13.128},{"code":"HGU","name":"Mount Hagen, Papua","latitude":-5.826,"longitude":144.296},{"code":"HHN","name":"land Nadrenia","latitude":49.95,"longitude":7.264},{"code":"HHQ","name":"Hua Hin, Tajlandia","latitude":12.634,"longitude":99.951},{"code":"HIJ","name":"Mihara, Japonia","latitude":34.435,"longitude":132.922},{"code":"HHQ","name":"Hua Hin, Tajlandia","latitude":12.634,"longitude":99.951},{"code":"HIR","name":"Honiara, Wyspy Salomona","latitude":0,"longitude":0},{"code":"HKD","name":"Hakodate, Japonia","latitude":41.77,"longitude":140.822},{"code":"HKG","name":"Hongkong, Chiny","latitude":22.309,"longitude":113.914},{"code":"HKK","name":"Hokitika, Nowa Zelandia","latitude":-42.714,"longitude":170.985},{"code":"HKT","name":"Phuket, Tajlandia","latitude":8.113,"longitude":98.317},{"code":"HLA","name":"Lanseria, Johannesburg","latitude":-25.938,"longitude":27.926},{"code":"HLF","name":"Hultsfred, Szwecja","latitude":57.526,"longitude":15.824},{"code":"HLH","name":"Ulanhot, Chi\u0144ska Republika Ludowa","latitude":0,"longitude":0},{"code":"HLN","name":"Helena, Montana, USA","latitude":46.607,"longitude":-111.983},{"code":"HLP","name":"D\u017cakarta, Indonezja","latitude":-6.266,"longitude":106.891},{"code":"HLZ","name":"Hamilton, Nowa Zelandia","latitude":-37.866,"longitude":175.332},{"code":"HME","name":"Oued Irara, Hassi Messaoud, Algieria","latitude":31.673,"longitude":6.14},{"code":"HMO","name":"Hermosillo, Meksyk","latitude":29.096,"longitude":-111.048},{"code":"HNA","name":"Hanamaki, Japonia","latitude":39.431,"longitude":141.136},{"code":"HND","name":"Haneda, Tokio, Japonia","latitude":35.552,"longitude":139.779},{"code":"HNL","name":"Honolulu, Hawaje, USA","latitude":21.316,"longitude":-157.927},{"code":"HOD","name":"Al","latitude":0,"longitude":0},{"code":"HOG","name":"Holgu\u00edn, Kuba","latitude":20.786,"longitude":-76.315},{"code":"HOI","name":"Hao, Polinezja Francuska","latitude":-18.075,"longitude":-140.946},{"code":"HOM","name":"Homer, Alaska, Stany Zjednoczone","latitude":59.646,"longitude":-151.476},{"code":"HOQ","name":"Hof, Niemcy","latitude":50.289,"longitude":11.855},{"code":"HOU","name":"William P. Hobby, Houston, Teksas, USA","latitude":29.645,"longitude":-95.279},{"code":"HOV","name":"Orsta, Norwegia","latitude":0,"longitude":0},{"code":"HPA","name":"Lifuka, Tonga","latitude":-19.777,"longitude":-174.341},{"code":"HPN","name":"White Plains, Nowy Jork, USA","latitude":41.067,"longitude":-73.707},{"code":"HRB","name":"Taiping, Harbin, Chi\u0144ska Republika Ludowa","latitude":45.623,"longitude":126.25},{"code":"HRE","name":"Harare, Zimbabwe","latitude":-17.932,"longitude":31.093},{"code":"HRG","name":"Hurghada, Egipt","latitude":27.184,"longitude":33.798},{"code":"HRL","name":"Harlingen, Teksas, USA","latitude":26.228,"longitude":-97.654},{"code":"HRT","name":"Linton","latitude":30.428,"longitude":-86.689},{"code":"HTA","name":"Czyta, Rosja","latitude":52.026,"longitude":113.305},{"code":"HTF","name":"Hatfield, Wielka Brytania","latitude":51.767,"longitude":0.25},{"code":"HTN","name":"Hoten, Chi\u0144ska Republika Ludowa","latitude":37.038,"longitude":79.866},{"code":"HUH","name":"Huahine, Polinezja Francuska","latitude":-16.687,"longitude":-151.022},{"code":"HUN","name":"Hualian, Republika Chi\u0144ska","latitude":24.023,"longitude":121.618},{"code":"HUV","name":"Hudiksvall, Szwecja","latitude":61.768,"longitude":17.081},{"code":"HUX","name":"Huatulco, Meksyk","latitude":15.775,"longitude":-96.261},{"code":"HUY","name":"Castle Donington, Wielka Brytania","latitude":53.574,"longitude":-0.351},{"code":"HVA","name":"Analalava, Madagaskar","latitude":-14.629,"longitude":47.764},{"code":"HVG","name":"Honningsvag, Norwegia","latitude":0,"longitude":0},{"code":"HYD","name":"Shamshabad, Hajdarabad, Indie","latitude":17.452,"longitude":78.461},{"code":"HYN","name":"Taizhou, Chi\u0144ska Republika Ludowa","latitude":0,"longitude":0},{"code":"HZK","name":"H\u00fasav\u00edk, Islandia","latitude":65.952,"longitude":-17.426},{"code":"IAD","name":"Washington Dulles, Chantilly, Wirginia k. Waszyngton, USA,","latitude":38.944,"longitude":-77.456},{"code":"IAH","name":"George Bush, mi\u0119dzy Aldine a Humble k. Houston, Teksas, USA","latitude":29.98,"longitude":-95.34},{"code":"IAM","name":"In Amnas, Algieria","latitude":28.051,"longitude":9.643},{"code":"IAS","name":"Jassy, Rumunia","latitude":47.179,"longitude":27.62},{"code":"IBA","name":"Ibadan, Nigeria","latitude":7.362,"longitude":3.978},{"code":"IBE","name":"Ibagu\u00e9, Kolumbia","latitude":4.421,"longitude":-75.133},{"code":"IBZ","name":"Ibiza, Baleary, Hiszpania","latitude":38.873,"longitude":1.373},{"code":"ICI","name":"Cicia, Fid\u017ci","latitude":0,"longitude":0},{"code":"ICT","name":"Wichita, Kansas, Stany Zjednoczone","latitude":37.65,"longitude":-97.433},{"code":"IDR","name":"Indore, Indie","latitude":22.722,"longitude":75.801},{"code":"IEG","name":"Zielona G\u00f3ra","latitude":52.139,"longitude":15.799},{"code":"IEV","name":"\u017buljany, Kij\u00f3w, Ukraina","latitude":50.402,"longitude":30.452},{"code":"IFJ","name":"\u00cdsafj\u00f6r?ur, Islandia","latitude":66.058,"longitude":-23.135},{"code":"IGA","name":"Matthew Town, Bahamy","latitude":20.975,"longitude":-73.667},{"code":"IGR","name":"Puerto Iguaz\u00fa, Argentyna","latitude":-25.738,"longitude":-54.473},{"code":"IGU","name":"Foz do Igua\u00e7u, Brazylia","latitude":0,"longitude":0},{"code":"IHN","name":"Kiszn, Jemen","latitude":0,"longitude":0},{"code":"IIA","name":"Inis Me\u00e1in, Irlandia","latitude":0,"longitude":0},{"code":"IKT","name":"Irkuck, Rosja","latitude":52.267,"longitude":104.395},{"code":"ILM","name":"Wilmington, Karolina P\u00f3\u0142nocna, USA","latitude":34.271,"longitude":-77.903},{"code":"ILO","name":"Iloilo, Filipiny","latitude":10.713,"longitude":122.545},{"code":"ILP","name":"\u00cele des Pins, Nowa Kaledonia","latitude":0,"longitude":0},{"code":"ILR","name":"Ilorin, Nigeria","latitude":8.44,"longitude":4.494},{"code":"ILU","name":"Kilaguni, Kenia","latitude":0,"longitude":0},{"code":"IMF","name":"Imphal, Indie","latitude":24.76,"longitude":93.897},{"code":"IND","name":"Indianapolis, Indiana, USA","latitude":39.717,"longitude":-86.294},{"code":"INH","name":"Inhambane, Mozambik","latitude":-23.876,"longitude":35.408},{"code":"INI","name":"Nisz, Serbia","latitude":0,"longitude":0},{"code":"INN","name":"Innsbruck, Austria","latitude":47.26,"longitude":11.344},{"code":"INQ","name":"Inis O\u00edrr, Irlandia","latitude":0,"longitude":0},{"code":"INU","name":"Yaren, Nauru","latitude":0,"longitude":0},{"code":"INV","name":"Inverness, Szkocja, Wielka Brytania","latitude":57.54,"longitude":-4.05},{"code":"INZ","name":"Ajn Salih, Algieria","latitude":27.251,"longitude":2.512},{"code":"IOA","name":"Janina, Grecja","latitude":39.696,"longitude":20.822},{"code":"IOM","name":"Ballasea, Wyspa Man","latitude":54.083,"longitude":-4.624},{"code":"ION","name":"Impfondo, Kongo","latitude":1.589,"longitude":18.047},{"code":"IOR","name":"Inis M\u00f3r, Irlandia","latitude":0,"longitude":0},{"code":"IOS","name":"Ilh\u00e9us, Brazylia","latitude":-14.816,"longitude":-39.033},{"code":"IPA","name":"Eromango, Vanuatu","latitude":0,"longitude":0},{"code":"IPC","name":"Mataveri, Wyspa Wielkanocna, Chile","latitude":-27.165,"longitude":-109.422},{"code":"IPH","name":"Ipoh, Malezja","latitude":4.568,"longitude":101.092},{"code":"IPN","name":"Usiminas, Ipatinga, Brazylia","latitude":-19.471,"longitude":-42.488},{"code":"IQQ","name":"Diego Aracena, Iquique, Chile","latitude":-20.535,"longitude":-70.181},{"code":"IQT","name":"Coronel FAP Francisco Secada Vignetta, Iquitos, Peru","latitude":-3.785,"longitude":-73.309},{"code":"IRI","name":"Iringa, Tanzania","latitude":-7.669,"longitude":35.752},{"code":"IRJ","name":"La Rioja, Argentyna","latitude":-29.381,"longitude":-66.796},{"code":"IRO","name":"Biraro, Republika \u015arodkowoafryka\u0144ska","latitude":10.236,"longitude":22.717},{"code":"ISA","name":"Mount Isa, Australia","latitude":-20.664,"longitude":139.489},{"code":"ISB","name":"Islamabad, Pakistan","latitude":33.616,"longitude":73.099},{"code":"ISC","name":"Hugh Town, Wielka Brytania","latitude":0,"longitude":0},{"code":"ISN","name":"Williston, Dakota P\u00f3\u0142nocna, USA","latitude":48.178,"longitude":-103.642},{"code":"ISP","name":"Long Island MacArthur, Islip, Nowy Jork, USA","latitude":40.795,"longitude":-73.1},{"code":"IST","name":"Atat\u00fcrk, Stambu\u0142, Turcja","latitude":40.977,"longitude":28.821},{"code":"ITM","name":"Itami k. Osaki, Japonia","latitude":34.785,"longitude":135.438},{"code":"ITO","name":"Hilo, Hawaje, USA","latitude":19.72,"longitude":-155.049},{"code":"IVA","name":"Ambanja, Madagaskar","latitude":0,"longitude":0},{"code":"IVC","name":"Invercargill, Nowa Zelandia","latitude":-46.412,"longitude":168.313},{"code":"IVL","name":"Ivalo, Finlandia","latitude":68.607,"longitude":27.405},{"code":"IXA","name":"Agartala, Indie","latitude":23.889,"longitude":91.241},{"code":"IXB","name":"Bagdogra, Siliguri, Indie","latitude":26.681,"longitude":88.328},{"code":"IXD","name":"Allahabad, Indie","latitude":25.439,"longitude":81.734},{"code":"IXE","name":"Mangaluru, Indie","latitude":12.96,"longitude":74.893},{"code":"IXG","name":"Belgaum, Indie","latitude":15.859,"longitude":74.618},{"code":"IXM","name":"Maduraj, Indie","latitude":9.834,"longitude":78.093},{"code":"IXR","name":"Ranchi, Indie","latitude":23.315,"longitude":85.321},{"code":"IXT","name":"Pasighat, Indie","latitude":28.066,"longitude":95.336},{"code":"IXU","name":"Aurangabad, Indie","latitude":19.863,"longitude":75.398},{"code":"IXZ","name":"Port Blair, Indie","latitude":11.646,"longitude":92.733},{"code":"JAA","name":"D\u017calalabad, Afganistan","latitude":34.399,"longitude":70.499},{"code":"JAF","name":"D\u017cafna, Sri Lanka","latitude":9.792,"longitude":80.07},{"code":"JAI","name":"Saranger, Jaipur, Indie","latitude":26.824,"longitude":75.81},{"code":"JAN","name":"Jackson, Missisipi, USA","latitude":32.311,"longitude":-90.076},{"code":"JAX","name":"Jacksonville, Floryda, USA","latitude":30.494,"longitude":-81.688},{"code":"JDF","name":"Juiz de Fora, Brazylia","latitude":-21.791,"longitude":-43.387},{"code":"JDZ","name":"Jingdezhen, Chi\u0144ska Republika Ludowa","latitude":0,"longitude":0},{"code":"JED","name":"King Abdulaziz, D\u017cudda, Arabia Saudyjska","latitude":21.679,"longitude":39.156},{"code":"JER","name":"Jersey, Wielka Brytania","latitude":49.208,"longitude":-2.195},{"code":"JFK","name":"John F. Kennedy, Jamaica, k. Nowego Jorku, stan Nowy Jork, USA","latitude":40.64,"longitude":-73.779},{"code":"JFR","name":"Paamiut, Grenlandia","latitude":0,"longitude":0},{"code":"JGO","name":"Qeqertarsuaq, Grenlandia","latitude":0,"longitude":0},{"code":"JHB","name":"Senai k. Johor Bahru, Malezja","latitude":1.641,"longitude":103.669},{"code":"JHS","name":"Sisimiut, Grenlandia","latitude":0,"longitude":0},{"code":"JIB","name":"Ambouli, D\u017cibuti, D\u017cibuti","latitude":0,"longitude":0},{"code":"JIM","name":"D\u017cimma, Etiopia","latitude":7.666,"longitude":36.816},{"code":"JKG","name":"J\u00f6nk\u00f6ping, Szwecja","latitude":57.758,"longitude":14.069},{"code":"JKH","name":"Chios, Grecja","latitude":38.343,"longitude":26.141},{"code":"JMK","name":"Mykonos, Grecja","latitude":37.435,"longitude":25.348},{"code":"JNB","name":"Johannesburg, RPA","latitude":-26.139,"longitude":28.246},{"code":"JNU","name":"Juneau, Alaska, USA","latitude":58.355,"longitude":-134.576},{"code":"JOE","name":"Joensuu, Finlandia","latitude":62.659,"longitude":29.624},{"code":"JOG","name":"Yogyakarta, Indonezja","latitude":-7.788,"longitude":110.432},{"code":"JOI","name":"Joinville, Brazylia","latitude":-26.225,"longitude":-48.797},{"code":"JON","name":"Johnston, Stany Zjednoczone","latitude":16.729,"longitude":-169.534},{"code":"JOS","name":"Yakubu Gowon, Jos, Nigeria","latitude":9.64,"longitude":8.869},{"code":"JPA","name":"Joao Pessoa, Brazylia","latitude":-7.27,"longitude":-35.896},{"code":"JRO","name":"Kilimand\u017caro, niedaleko g\u00f3ry Kilimand\u017caro, Tanzania","latitude":-3.429,"longitude":37.074},{"code":"JRS","name":"Jerozolima, Izrael","latitude":31.867,"longitude":35.217},{"code":"JSI","name":"Skiathos, Grecja","latitude":39.177,"longitude":23.504},{"code":"JSR","name":"D\u017aoszohor, Bangladesz","latitude":23.184,"longitude":89.161},{"code":"JSU","name":"Maniitsoq, Grenlandia","latitude":0,"longitude":0},{"code":"JTR","name":"Thira, Grecja","latitude":36.4,"longitude":25.479},{"code":"JUB","name":"D\u017cuba, Sudan Po\u0142udniowy","latitude":4.872,"longitude":31.601},{"code":"JUI","name":"Juist, Niemcy","latitude":0,"longitude":0},{"code":"JUJ","name":"San Salvador de Jujuy, Argentyna","latitude":-24.393,"longitude":-65.098},{"code":"JUL","name":"Inca Manco Capac, Juliaca, Peru","latitude":-15.467,"longitude":-70.158},{"code":"JUV","name":"Upernavik, Grenlandia","latitude":0,"longitude":0},{"code":"JWA","name":"Jwaneng, Botswana","latitude":-24.602,"longitude":24.691},{"code":"JYV","name":"Jyv\u00e4skyl\u00e4, Finlandia","latitude":62.399,"longitude":25.678},{"code":"KAA","name":"Kasama, Zambia","latitude":0,"longitude":0},{"code":"KAB","name":"Kariba, Zimbabwe","latitude":-16.52,"longitude":28.885},{"code":"KAD","name":"Kaduna, Nigeria","latitude":10.696,"longitude":7.32},{"code":"KAG","name":"Kangnung, Korea Po\u0142udniowa","latitude":37.753,"longitude":128.944},{"code":"KAJ","name":"Kajaani, Finlandia","latitude":64.285,"longitude":27.692},{"code":"KAN","name":"Kano, Nigeria","latitude":12.047,"longitude":8.524},{"code":"KAO","name":"Kuusamo, Finlandia","latitude":65.987,"longitude":29.239},{"code":"KAR","name":"Kamarang, Gujana","latitude":5.865,"longitude":-60.614},{"code":"KAT","name":"Kaitaia, Nowa Zelandia","latitude":-35.07,"longitude":173.285},{"code":"KBA","name":"Kabala, Sierra Leone","latitude":0,"longitude":0},{"code":"KBI","name":"Kribi, Kamerun","latitude":0,"longitude":0},{"code":"KBL","name":"Kabul, Afganistan","latitude":34.566,"longitude":69.212},{"code":"KBP","name":"Kij\u00f3w","latitude":50.345,"longitude":30.895},{"code":"KBR","name":"Kota Bahru, Malezja","latitude":6.166,"longitude":102.294},{"code":"KBS","name":"Bo, Sierra Leone","latitude":0,"longitude":0},{"code":"KCH","name":"Kuching, Malezja","latitude":1.485,"longitude":110.346},{"code":"KCZ","name":"Nankoku \/kKochi, Japonia","latitude":33.544,"longitude":133.671},{"code":"KDA","name":"Kolda, Senegal","latitude":12.88,"longitude":-14.955},{"code":"KDC","name":"Kandi, Benin","latitude":0,"longitude":0},{"code":"KDI","name":"Kendari, Indonezja","latitude":-4.082,"longitude":122.417},{"code":"KED","name":"Kajhajdi, Mauretania","latitude":16.159,"longitude":-13.508},{"code":"KEE","name":"Kelle, Kongo","latitude":0,"longitude":0},{"code":"KEF","name":"Keflav\u00edk (niedaleko Reykjav\u00edku), Islandia","latitude":63.985,"longitude":-22.606},{"code":"KEJ","name":"Kemerowo, Rosja","latitude":55.27,"longitude":86.107},{"code":"KEL","name":"Kilonia, Niemcy","latitude":54.379,"longitude":10.145},{"code":"KEM","name":"Lautiosaari, Finlandia","latitude":65.782,"longitude":24.599},{"code":"KEN","name":"Kenema, Sierra Leone","latitude":0,"longitude":0},{"code":"KEO","name":"Odienn\u00e9, Wybrze\u017ce Ko\u015bci S\u0142oniowej","latitude":0,"longitude":0},{"code":"KER","name":"Kerman, Iran","latitude":30.261,"longitude":56.957},{"code":"KET","name":"Kengtung, Mjanma","latitude":21.301,"longitude":99.637},{"code":"KFA","name":"Kiffa, Mauretania","latitude":16.59,"longitude":-11.406},{"code":"KGA","name":"Kananga, Demokratyczna Republika Konga","latitude":-5.9,"longitude":22.469},{"code":"KGD","name":"Kaliningrad, Rosja","latitude":54.89,"longitude":20.592},{"code":"KGG","name":"Kedougou, Senegal","latitude":12.572,"longitude":-12.22},{"code":"KGI","name":"Kalgoorlie, Australia","latitude":-30.789,"longitude":121.462},{"code":"KGL","name":"Kigali, Rwanda","latitude":-1.969,"longitude":30.139},{"code":"KGS","name":"Kos, Grecja","latitude":36.793,"longitude":27.092},{"code":"KHG","name":"Kaszgar, Chi\u0144ska Republika Ludowa","latitude":39.543,"longitude":76.022},{"code":"KHH","name":"Kaohsiung, Republika Chi\u0144ska (Tajwan)","latitude":22.575,"longitude":120.351},{"code":"KHI","name":"Karaczi, Pakistan","latitude":24.906,"longitude":67.161},{"code":"KHN","name":"Changbei, Nanchang, Chi\u0144ska Republika Ludowa","latitude":28.6,"longitude":115.917},{"code":"KHS","name":"Chasab, Oman","latitude":26.171,"longitude":56.241},{"code":"KHT","name":"Chost, Afganistan","latitude":0,"longitude":0},{"code":"KHV","name":"Chabarowsk, Rosja","latitude":48.528,"longitude":135.188},{"code":"KHW","name":"Khwai River Lodge, Botswana","latitude":0,"longitude":0},{"code":"KID","name":"Kristianstad, Szwecja","latitude":55.922,"longitude":14.085},{"code":"KIH","name":"Kisz, Iran","latitude":26.527,"longitude":53.982},{"code":"KIJ","name":"Niigata, Japonia","latitude":0,"longitude":0},{"code":"KIM","name":"Kimberley, RPA","latitude":-28.803,"longitude":24.765},{"code":"KIN","name":"Norman Manley Kingston, Jamajka","latitude":17.936,"longitude":-76.787},{"code":"KIR","name":"Kerry, Irlandia","latitude":52.181,"longitude":-9.524},{"code":"KIS","name":"Kisumu, Kenia","latitude":-0.086,"longitude":34.729},{"code":"KIT","name":"K\u00edthira, Grecja","latitude":36.274,"longitude":23.017},{"code":"KIV","name":"Kiszyni\u00f3w, Mo\u0142dawia","latitude":0,"longitude":0},{"code":"KIW","name":"Kitwe, Zambia","latitude":-12.9,"longitude":28.15},{"code":"KJA","name":"Krasnojarsk, Rosja","latitude":0,"longitude":0},{"code":"KKC","name":"Khon Kaen, Tajlandia","latitude":0,"longitude":0},{"code":"KKE","name":"Kerikeri, Nowa Zelandia","latitude":-35.263,"longitude":173.912},{"code":"KKJ","name":"Kitakyushu, Japonia","latitude":33.836,"longitude":130.947},{"code":"KKN","name":"Kirkenes, Norwegia","latitude":69.725,"longitude":29.887},{"code":"KKR","name":"Kaukura, Polinezja Francuska","latitude":-15.663,"longitude":-146.885},{"code":"KLD","name":"Twer, Rosja","latitude":56.825,"longitude":35.758},{"code":"KLE","name":"Kaele, Mozambik","latitude":0,"longitude":0},{"code":"KLH","name":"Kolhapur, Indie","latitude":16.664,"longitude":74.288},{"code":"KLO","name":"Kalibo, Filipiny","latitude":11.681,"longitude":122.378},{"code":"KLR","name":"Kalmar, Szwecja","latitude":56.685,"longitude":16.288},{"code":"KLV","name":"Karlovy Vary, Czechy","latitude":50.203,"longitude":12.915},{"code":"KLX","name":"Kalamata, Grecja","latitude":37.068,"longitude":22.026},{"code":"KME","name":"Kamembe, Rwanda","latitude":-2.462,"longitude":28.908},{"code":"KMG","name":"Wujiaba, Kunming, Chi\u0144ska Republika Ludowa","latitude":24.992,"longitude":102.743},{"code":"KMI","name":"Miyazaki, Japonia","latitude":31.877,"longitude":131.448},{"code":"KMJ","name":"Kumamoto, Japonia","latitude":32.837,"longitude":130.855},{"code":"KMK","name":"Makabana, Kongo","latitude":-3.483,"longitude":12.617},{"code":"KMQ","name":"Komatsu, Japonia","latitude":0,"longitude":0},{"code":"KMS","name":"Kumasi, Ghana","latitude":0,"longitude":0},{"code":"KMU","name":"Kismaju, Somalia","latitude":-0.377,"longitude":42.459},{"code":"KNH","name":"Kinmen, Republika Chi\u0144ska","latitude":24.432,"longitude":118.359},{"code":"KNJ","name":"Kindamba, Kongo","latitude":0,"longitude":0},{"code":"KNN","name":"Kankan, Gwinea","latitude":0,"longitude":0},{"code":"KNQ","name":"Kon\u00e9, Nowa Kaledonia","latitude":-21.053,"longitude":164.838},{"code":"KNU","name":"Kanpur, Indie","latitude":26.441,"longitude":80.363},{"code":"KNX","name":"Kununurra, Australia","latitude":-15.778,"longitude":128.707},{"code":"KOA","name":"Keahole, k. Kailua i Kona, Hawaje, USA","latitude":19.739,"longitude":-156.046},{"code":"KOC","name":"Koumac, Nowa Kaledonia","latitude":-20.546,"longitude":164.256},{"code":"KOE","name":"Kupang, Indonezja","latitude":-10.171,"longitude":123.671},{"code":"KOI","name":"Kirkwall, Szkocja, Wielka Brytania","latitude":58.958,"longitude":-2.905},{"code":"KOJ","name":"Kagoshima, Japonia","latitude":31.803,"longitude":130.719},{"code":"KOK","name":"Kronoby\/k Kokkola, Finlandia","latitude":63.721,"longitude":23.143},{"code":"KOP","name":"Nakhon Phanom, Tajlandia","latitude":17.412,"longitude":104.777},{"code":"KOW","name":"Ganzhou, Chi\u0144ska Republika Ludowa","latitude":0,"longitude":0},{"code":"KRE","name":"Kirundo, Burundi","latitude":0,"longitude":0},{"code":"KPO","name":"Pohang, Korea Po\u0142udniowa","latitude":35.988,"longitude":129.42},{"code":"KRF","name":"Kramfors, Szwecja","latitude":63.048,"longitude":17.769},{"code":"KRK","name":"Mi\u0119dzynarodowy Port Lotniczy im. Jana Paw\u0142a II, Krak\u00f3w","latitude":50.078,"longitude":19.785},{"code":"KRN","name":"Kiruna, Szwecja","latitude":67.822,"longitude":20.337},{"code":"KRO","name":"Kurgan, Rosja","latitude":55.475,"longitude":65.415},{"code":"KRP","name":"Karup, Dania","latitude":56.297,"longitude":9.124},{"code":"KRR","name":"Krasnodar, Rosja","latitude":45.035,"longitude":39.172},{"code":"KRS","name":"Kjevik, Kristiansand, Norwegia","latitude":58.204,"longitude":8.085},{"code":"KRT","name":"Chartum, Sudan","latitude":15.589,"longitude":32.553},{"code":"KRW","name":"Turkmenbaszy, Turkmenistan","latitude":40.033,"longitude":52.983},{"code":"KSA","name":"Kosrae, Mikronezja","latitude":5.357,"longitude":162.958},{"code":"KSC","name":"Koszyce, S\u0142owacja","latitude":48.663,"longitude":21.241},{"code":"KSD","name":"Karlstad, Szwecja","latitude":0,"longitude":0},{"code":"KSE","name":"Kasese, Uganda","latitude":0,"longitude":0},{"code":"KSF","name":"Kassel, Niemcy","latitude":51.408,"longitude":9.378},{"code":"KSH","name":"Kermanszah, Iran","latitude":34.346,"longitude":47.156},{"code":"KSI","name":"Kissidougou, Gwinea","latitude":0,"longitude":0},{"code":"KSJ","name":"Kasos, Grecja","latitude":35.421,"longitude":26.91},{"code":"KSK","name":"Karlskoga, Szwecja","latitude":59.346,"longitude":14.496},{"code":"KSO","name":"Kastoria, Grecja","latitude":40.449,"longitude":21.276},{"code":"KSU","name":"Kristiansund, Norwegia","latitude":63.112,"longitude":7.824},{"code":"KTA","name":"Karratha, Australia Zachodnia, Australia","latitude":-20.712,"longitude":116.773},{"code":"KTE","name":"Kerteh, Malezja","latitude":4.537,"longitude":103.426},{"code":"KTM","name":"Katmandu, Nepal","latitude":27.696,"longitude":85.359},{"code":"KTQ","name":"Kitee, Finlandia","latitude":53.206,"longitude":63.551},{"code":"KTT","name":"Kittil\u00e4, Finlandia","latitude":67.701,"longitude":24.847},{"code":"KTW","name":"Katowice","latitude":50.474,"longitude":19.08},{"code":"KTX","name":"Koutiala, Mali","latitude":0,"longitude":0},{"code":"KUA","name":"Kuantan, Malezja","latitude":3.775,"longitude":103.209},{"code":"KUH","name":"Kushiro, Japonia","latitude":0,"longitude":0},{"code":"KUL","name":"Sepang k. Kuala Lumpur, Malezja","latitude":2.746,"longitude":101.71},{"code":"KUO","name":"Kuopio, Finlandia","latitude":63.007,"longitude":27.798},{"code":"KUS","name":"Kulusuk, Grenlandia","latitude":65.583,"longitude":-37.15},{"code":"KVA","name":"Kawala, Grecja","latitude":40.913,"longitude":24.619},{"code":"KVX","name":"Pobiedi\u0142owo, Kirow, Rosja","latitude":0,"longitude":0},{"code":"KWE","name":"Longdongbao, Guiyang, Chi\u0144ska Republika Ludowa","latitude":0,"longitude":0},{"code":"KWH","name":"Chwahan, Afganistan","latitude":0,"longitude":0},{"code":"KWI","name":"Kuwejt, Kuwejt","latitude":29.227,"longitude":47.98},{"code":"KWL","name":"Liangjiang, Guilin, Chi\u0144ska Republika Ludowa","latitude":25.218,"longitude":110.039},{"code":"KWZ","name":"Kolwezi, Demokratyczna Republika Konga","latitude":-10.766,"longitude":25.506},{"code":"KYA","name":"Konya, Turcja","latitude":37.979,"longitude":32.562},{"code":"KYD","name":"Lan Yu, Republika Chi\u0144ska","latitude":22.029,"longitude":121.527},{"code":"KYP","name":"Kyaukpyu, Mjanma","latitude":19.427,"longitude":93.534},{"code":"KYS","name":"Kayes, Mali","latitude":14.431,"longitude":-11.439},{"code":"KYZ","name":"Kyzy\u0142, Rosja","latitude":0,"longitude":0},{"code":"KZI","name":"Kozani, Grecja","latitude":40.286,"longitude":21.841},{"code":"KZN","name":"Kaza\u0144, Rosja","latitude":55.608,"longitude":49.277},{"code":"LAD","name":"Luanda, Angola","latitude":-8.858,"longitude":13.231},{"code":"LAE","name":"Nadzab, Lae, Papua","latitude":-6.57,"longitude":146.726},{"code":"LAI","name":"Lannion, Francja","latitude":48.754,"longitude":-3.471},{"code":"LAN","name":"Lansing, Michigan, USA","latitude":42.779,"longitude":-84.587},{"code":"LAP","name":"La Paz, Meksyk","latitude":24.072,"longitude":-110.362},{"code":"LAS","name":"McCarran, Las Vegas, Nevada, USA","latitude":36.08,"longitude":-115.152},{"code":"LAU","name":"Manda, Kenia","latitude":-2.252,"longitude":40.913},{"code":"LAX","name":"Los Angeles, Kalifornia, USA","latitude":33.942,"longitude":-118.408},{"code":"LAY","name":"Ladysmith, Po\u0142udniowa Afryka","latitude":-28.582,"longitude":29.75},{"code":"LBA","name":"Leeds\/Bradford, West Yorkshire, Wielka Brytania","latitude":53.866,"longitude":-1.661},{"code":"LBB","name":"Lubbock, Teksas, USA","latitude":33.664,"longitude":-101.823},{"code":"LBC","name":"Lubeka, Niemcy","latitude":53.805,"longitude":10.719},{"code":"LBG","name":"Le Bourget, Pary\u017c, Francja","latitude":48.969,"longitude":2.441},{"code":"LBI","name":"Albi, Francja","latitude":43.914,"longitude":2.113},{"code":"LBQ","name":"Lambarene, Gabon","latitude":-0.704,"longitude":10.246},{"code":"LBU","name":"Labuan, Malezja","latitude":5.301,"longitude":115.25},{"code":"LBV","name":"Libreville, Gabon","latitude":0.458,"longitude":9.412},{"code":"LCA","name":"Larnaka, Cypr","latitude":34.875,"longitude":33.625},{"code":"LCC","name":"Lecce, W\u0142ochy","latitude":40.239,"longitude":18.133},{"code":"LCE","name":"Golos\u00f3n, La Ceiba, Honduras","latitude":15.742,"longitude":-86.853},{"code":"LCG","name":"La Coruna, Hiszpania","latitude":43.302,"longitude":-8.377},{"code":"LCL","name":"La Coloma, Kuba","latitude":22.336,"longitude":-83.642},{"code":"LCO","name":"Lague, Kongo","latitude":0,"longitude":0},{"code":"LCY","name":"Londyn, Wielka Brytania","latitude":51.505,"longitude":0.054},{"code":"LDB","name":"Londrina, Brazylia","latitude":-23.334,"longitude":-51.13},{"code":"LDE","name":"Lourdes, Francja","latitude":43.179,"longitude":-0.006},{"code":"LDI","name":"Kikwetu, Lindi, Tanzania","latitude":0,"longitude":0},{"code":"LDK","name":"Lidk\u00f6ping, Szwecja","latitude":58.465,"longitude":13.174},{"code":"LDU","name":"Lahad Datu, Malezja","latitude":5.032,"longitude":118.324},{"code":"LDY","name":"Derry, Wielka Brytania","latitude":55.043,"longitude":-7.161},{"code":"LEA","name":"Exmouth, Australia","latitude":-22.236,"longitude":114.089},{"code":"LED","name":"Pu\u0142kowo, Petersburg, Rosja","latitude":59.8,"longitude":30.265},{"code":"LEH","name":"Hawr, Francja","latitude":49.534,"longitude":0.088},{"code":"LEI","name":"Almer\u00eda, Hiszpania","latitude":36.844,"longitude":-2.37},{"code":"LEJ","name":"Lipsk\/Halle, Niemcy","latitude":51.424,"longitude":12.236},{"code":"LES","name":"Lesobeng, Lesotho","latitude":0,"longitude":0},{"code":"LET","name":"Alfredo Vasquez Cobo, Leticia, Kolumbia","latitude":-4.193,"longitude":-69.943},{"code":"LFR","name":"La Fr\u00eda, Wenezuela","latitude":8.239,"longitude":-72.271},{"code":"LFT","name":"Lafayette, Luizjana, USA","latitude":30.205,"longitude":-91.987},{"code":"LFW","name":"Lom\u00e9, Togo","latitude":6.166,"longitude":1.254},{"code":"LGA","name":"La Guardia , Flushing k. Nowego Jorku, USA,","latitude":40.777,"longitude":-73.872},{"code":"LGB","name":"Long Beach k. Los Angeles, Kalifornia, USA","latitude":33.818,"longitude":-118.151},{"code":"LGG","name":"Liege, Belgia","latitude":50.637,"longitude":5.443},{"code":"LGI","name":"Deadman's Cay, Bahamy","latitude":23.179,"longitude":-75.093},{"code":"LGK","name":"Langkawi, Malezja","latitude":6.33,"longitude":99.729},{"code":"LGP","name":"Legazpi, Filipiny","latitude":7.828,"longitude":123.46},{"code":"LGQ","name":"Nueva Loja, Ekwador","latitude":0.092,"longitude":-76.869},{"code":"LGS","name":"Malarg\u00fce, Argentyna","latitude":-35.484,"longitude":-69.582},{"code":"LGW","name":"Gatwick, k. Londynu, Wielka Brytania","latitude":51.148,"longitude":-0.19},{"code":"LHE","name":"Allama Iqbal, Lahaur, Pakistan","latitude":31.521,"longitude":74.403},{"code":"LHW","name":"Leeuwarden, Holandia","latitude":31.889,"longitude":-81.562},